WKT,SA22018_V1_00,SA22018_V1_NAME,LAND_AREA_SQ_KM,AREA_SQ_KM,EASTING,NORTHING,LATITUDE,LONGITUDE,Shape_X,Shape_Y
"POINT (2490419.4098031 6744035.10105716)",100100,North Cape,826.78512205,826.78512205,1579396.08115,6181775.2488,-34.50545276,172.77554997,2490419.4098031,6744035.10105716
"POINT (2523457.22819798 6698370.4403907)",100200,Rangaunu Harbour,272.10405305,272.10405305,1612554.6505,6136232.76615,-34.91627744,173.13744282,2523457.22819798,6698370.4403907
"POINT (2616264.18521603 6663978.77343791)",100300,Inlets Far North District,0,625.97275382,1705412.87215,6102111.0264,-35.21850133,174.15824941,2616264.18521603,6663978.77343791
"POINT (2545451.47977973 6689485.64988664)",100400,Karikari Peninsula,174.18081591,174.18081591,1634562.57445,6127415.05495,-34.99527816,173.37873836,2545451.47977973,6689485.64988664
"POINT (2530759.53569826 6675382.40665105)",100500,Tangonge,177.20434269,177.20434269,1619918.06695,6113278.3712,-35.12314727,173.21860407,2530759.53569826,6675382.40665105
"POINT (2525482.73936989 6671371.41331906)",100600,Ahipara,4.5292775,4.5292775,1614655.61185,6109255.02585,-35.15951697,173.16091938,2525482.73936989,6671371.41331906
"POINT (2534922.80272303 6677503.67307467)",100700,Kaitaia East,5.26631029,5.26631029,1624073.02855,6115410.04495,-35.10383477,173.26414302,2534922.80272303,6677503.67307467
"POINT (2535188.29172145 6675510.78160643)",100800,Kaitaia West,3.21185052,3.21185052,1624343.92035,6113419.01755,-35.1217817,173.26717397,2535188.29172145,6675510.78160643
"POINT (2539200.06030243 6674814.62529699)",100900,Rangitihi,84.66042662,84.66042662,1628355.363,6112734.3932,-35.12785001,173.3112224,2539200.06030243,6674814.62529699
"POINT (2552956.04733998 6685212.47161559)",101000,Oruru-Parapara,103.28072757,103.28072757,1642075.24825,6123164.91395,-35.03331749,173.46127559,2552956.04733998,6685212.47161559
"POINT (2557228.58358703 6689239.84809909)",101100,Taumarumaru,10.2297234,10.2297234,1646334.53585,6127202.16855,-34.99672682,173.50774402,2557228.58358703,6689239.84809909
"POINT (2544733.09036383 6667923.62796414)",101200,Herekino-Takahue,303.69091784,303.69091784,1633904.28605,6105862.4712,-35.18964254,173.37240745,2544733.09036383,6667923.62796414
"POINT (2551684.04086682 6675151.15632255)",101300,Peria,199.69058441,199.69058441,1640831.64315,6113105.20105,-35.12407747,173.44813792,2551684.04086682,6675151.15632255
"POINT (2563698.15468661 6686010.75065172)",101400,Taemaro-Oruaiti,156.73427166,156.73427166,1652809.93805,6123992.4508,-35.02535123,173.57890377,2563698.15468661,6686010.75065172
"POINT (2571347.577773 6683220.90482268)",101500,Whakapaku,200.87343203,200.87343203,1660463.4437,6121224.8387,-35.04987698,173.66299855,2571347.577773,6683220.90482268
"POINT (2541513.80367863 6648095.31774353)",101600,Hokianga North,345.93522228,345.93522228,1630740.62845,6086036.9,-35.36850897,173.33840098,2541513.80367863,6648095.31774353
"POINT (2552959.98622635 6656722.74244582)",101700,Kohukohu-Broadwood,209.19924258,209.19924258,1642157.01515,6094690.1174,-35.29006863,173.46362668,2552959.98622635,6656722.74244582
"POINT (2588384.77549755 6681598.97553927)",101800,Whakarara,169.49143734,169.49143734,1677497.5451,6119649.8363,-35.0629133,173.84991312,2588384.77549755,6681598.97553927
"POINT (2578558.28266469 6671585.61530492)",101900,Kaeo,255.57977504,255.57977504,1667702.38385,6109614.39505,-35.15410315,173.74331968,2578558.28266469,6671585.61530492
"POINT (2566988.01899637 6656800.06351644)",102000,Omahuta Forest-Horeke,463.54915239,463.54915239,1656177.3855,6094804.97815,-35.28834375,173.61780248,2566988.01899637,6656800.06351644
"POINT (2554699.57980584 6636963.04875208)",102100,Hokianga South,126.08745475,126.08745475,1643948.14205,6074946.17265,-35.46801387,173.48438703,2554699.57980584,6636963.04875208
"POINT (2589641.77406047 6668296.09071233)",102200,Lake Manuwai-Kapiro,59.06085734,59.06085734,1678789.75475,6106356.02255,-35.18267324,173.86535013,2589641.77406047,6668296.09071233
"POINT (2582729.87240477 6656838.64671519)",102300,Okaihau,147.59027666,160.01971243,1671911.4646,6094885.3557,-35.28661159,173.79081555,2582729.87240477,6656838.64671519
"POINT (2596428.61218366 6673596.9809572)",102400,Rangitane-Purerua,123.18645582,123.18645582,1685559.53205,6111672.7895,-35.13418331,173.9391431,2596428.61218366,6673596.9809572
"POINT (2594439.26276765 6665215.33563066)",102500,Waipapa,9.15899721,9.15899721,1683593.3947,6103289.36305,-35.2099338,173.91841396,2594439.26276765,6665215.33563066
"POINT (2593009.15724874 6660590.69274328)",102600,Puketotara,55.26424098,55.26424098,1682176.1845,6098662.9188,-35.2517628,173.90330753,2593009.15724874,6660590.69274328
"POINT (2567856.05894103 6634729.044649)",102700,Waima Forest,236.99516982,236.99516982,1657103.15145,6072747.7433,-35.48716638,173.62952632,2567856.05894103,6634729.044649
"POINT (2598450.20463215 6665374.69188506)",102800,Riverview,6.21930008,6.21930008,1687602.2238,6103459.29685,-35.20805962,173.9624342,2598450.20463215,6665374.69188506
"POINT (2557049.35398528 6624374.80603194)",102900,Waipoua Forest,277.80801476,277.80801476,1646329.2604,6062371.3166,-35.58128435,173.51134902,2557049.35398528,6624374.80603194
"POINT (2597382.56335341 6663499.90447041)",103000,Kerikeri Central,3.71173696,3.71173696,1686540.0073,6101582.46485,-35.22507309,173.95096304,2597382.56335341,6663499.90447041
"POINT (2597974.76191658 6661126.222318)",103100,Kerikeri South,15.46843227,15.46843227,1687138.24795,6099211.34965,-35.24639884,173.9577874,2597974.76191658,6661126.222318
"POINT (2588955.94039367 6651377.67601502)",103200,Ohaeawai-Waimate North,87.40452306,87.40452306,1678149.0902,6089443.304,-35.33520904,173.85992372,2588955.94039367,6651377.67601502
"POINT (2601856.16614767 6657358.14340068)",103300,Puketona-Waitangi,156.38492968,156.38492968,1691027.9822,6095455.082,-35.27991822,174.00095246,2601856.16614767,6657358.14340068
"POINT (2580256.35381974 6641748.40903827)",103400,Ngapuhi,175.39009407,175.39009407,1669478.82095,6079795.79675,-35.4228326,173.76534835,2580256.35381974,6641748.40903827
"POINT (2583210.06970292 6643371.73435775)",103500,Kaikohe,5.67512268,5.67512268,1672426.8724,6081426.04295,-35.40792422,173.79767516,2583210.06970292,6643371.73435775
"POINT (2600233.95319902 6647663.5677255)",103600,Pakaraka,72.33748195,72.33748195,1689431.87385,6085760.33675,-35.36746635,173.98446287,2600233.95319902,6647663.5677255
"POINT (2607157.46987572 6657354.82307693)",103700,Haruru,1.52772435,1.52772435,1696327.144,6095465.6992,-35.27932636,174.05921268,2607157.46987572,6657354.82307693
"POINT (2613129.43818649 6659802.23189017)",103800,Russell,3.27931477,3.27931477,1702290.32955,6097927.8352,-35.25653762,174.12446613,2613129.43818649,6659802.23189017
"POINT (2610231.86508547 6656561.84428143)",103900,Paihia,2.2421089,2.2421089,1699402.40655,6094681.1088,-35.28609895,174.09311792,2610231.86508547,6656561.84428143
"POINT (2583742.61002599 6627915.33763862)",104000,Mataraua Forest,272.9269353,272.9269353,1672999.13575,6065978.46685,-35.54715526,173.80536516,2583742.61002599,6627915.33763862
"POINT (2597172.08232346 6633652.84318851)",104100,Matawaia-Taumarere,410.6837121,410.6837121,1686407.6311,6071747.7597,-35.49406405,173.95266307,2597172.08232346,6633652.84318851
"POINT (2616522.64350744 6656397.00480723)",104200,Russell Peninsula,26.20135237,26.20135237,1705691.19175,6094532.8277,-35.28679106,174.16228184,2616522.64350744,6656397.00480723
"POINT (2610804.58624652 6652492.15600676)",104300,Opua (Far North District),5.62247307,5.62247307,1699985.5716,6090614.5372,-35.32270229,174.10002605,2610804.58624652,6652492.15600676
"POINT (2622188.16478135 6647214.15298008)",104400,Russell Forest-Rawhiti,191.37950948,191.37950948,1711378.574,6085368.234,-35.36879174,174.22606034,2622188.16478135,6647214.15298008
"POINT (2603910.154651 6645812.79652377)",104500,Moerewa,1.87566952,1.87566952,1693111.35565,6083919.92125,-35.38372176,174.02517066,2603910.154651,6645812.79652377
"POINT (2608513.48248509 6646278.5025854)",104600,Kawakawa,1.73247964,1.73247964,1697711.5911,6084397.408,-35.37897674,174.07575504,2608513.48248509,6646278.5025854
"POINT (2614316.19344057 6635181.21964714)",104700,Maromaku,238.30862311,238.30862311,1703540.68045,6073319.553,-35.47825535,174.1413276,2614316.19344057,6635181.21964714
"POINT (2601453.30604036 6615959.48325472)",104800,Mangakahia-Hukerenui,658.54706101,658.54706101,1690731.954,6054073.02735,-35.65301955,174.0023164,2601453.30604036,6615959.48325472
"POINT (2631872.97558542 6633621.39894719)",104900,Whangaruru,469.35201031,469.35201031,1721095.0401,6071805.3417,-35.48991999,174.3350113,2631872.97558542,6633621.39894719
"POINT (2633168.6758628 6646829.55630173)",105000,Inlets other Whangarei District,0,39.02456944,1722356.1878,6085012.2931,-35.370714,174.34692727,2633168.6758628,6646829.55630173
"POINT (2620225.99745315 6614117.64496931)",105100,Matarau,108.38593904,108.38593904,1709501.6599,6052279.03065,-35.66728748,174.20987157,2620225.99745315,6614117.64496931
"POINT (2627349.99476477 6622088.95956044)",105200,Hikurangi,4.0002501,4.0002501,1716603.02045,6060265.3993,-35.5944828,174.28716175,2627349.99476477,6622088.95956044
"POINT (2627243.69625782 6618210.72589155)",105300,Kauri,56.10398784,56.10398784,1716506.55295,6056388.25925,-35.62944367,174.28665672,2627243.69625782,6618210.72589155
"POINT (2615084.08895817 6603674.28325711)",105400,Maungatapere,174.47962567,174.47962567,1704387.71435,6041826.82675,-35.76206371,174.15473729,2615084.08895817,6603674.28325711
"POINT (2627935.487037 6613691.82213138)",105500,Kamo West,4.49900752,4.49900752,1717209.45895,6051872.67155,-35.67006476,174.29507452,2627935.487037,6613691.82213138
"POINT (2644639.29011008 6621419.90154095)",105600,Matapouri-Tutukaka,78.46534341,78.46534341,1733888.359,6059640.3206,-35.59792832,174.47802227,2644639.29011008,6621419.90154095
"POINT (2637738.66941984 6616120.15097446)",105700,Kiripaka,72.06743057,72.06743057,1727003.2922,6054324.79145,-35.64674958,174.40287423,2637738.66941984,6616120.15097446
"POINT (2629255.88480558 6612848.87528198)",105800,Kamo East,1.42716225,1.42716225,1718531.51515,6051033.3223,-35.67747272,174.30980246,2629255.88480558,6612848.87528198
"POINT (2627899.04638912 6611463.27366367)",105900,Granfield Reserve,1.66090904,1.66090904,1717178.60885,6049644.80695,-35.69015065,174.29505823,2627899.04638912,6611463.27366367
"POINT (2628800.53245747 6612035.95656938)",106000,Kamo Central,1.09354706,1.09354706,1718078.35305,6050219.5446,-35.68486255,174.30491552,2628800.53245747,6612035.95656938
"POINT (2627940.13968155 6609792.36901506)",106100,Whau Valley,7.18025885,7.18025885,1717223.8601,6047974.585,-35.70520079,174.29580182,2627940.13968155,6609792.36901506
"POINT (2630448.96281445 6612454.93699565)",106200,Tikipunga North,2.74100722,2.74100722,1719725.17495,6050642.5042,-35.68085136,174.32304772,2630448.96281445,6612454.93699565
"POINT (2624179.84133072 6605273.14888639)",106300,Pukenui,19.19103565,19.19103565,1713476.11335,6043447.60605,-35.74644668,174.25502298,2624179.84133072,6605273.14888639
"POINT (2629942.84523207 6611081.7074799)",106400,Otangarei,1.03955837,1.03955837,1719222.66335,6049268.47775,-35.69329776,174.31769963,2629942.84523207,6611081.7074799
"POINT (2631204.56663008 6610919.526547)",106500,Tikipunga South,2.74033953,2.74033953,1720484.3659,6049109.50315,-35.69457731,174.33166497,2631204.56663008,6610919.526547
"POINT (2629060.24007739 6608897.91074577)",106600,Kensington (Whangarei District),3.11118529,3.11118529,1718345.8072,6047083.22685,-35.71310137,174.30833235,2629060.24007739,6608897.91074577
"POINT (2633863.29183157 6609831.76571026)",106700,Abbey Caves-Glenbervie,32.11865017,32.11865017,1723144.9311,6048028.74265,-35.70399025,174.36122936,2633863.29183157,6609831.76571026
"POINT (2630520.75752257 6609827.68008579)",106800,Mairtown,0.94419075,0.94419075,1719803.51255,6048016.31955,-35.70451425,174.32430453,2630520.75752257,6609827.68008579
"POINT (2627392.51529657 6606208.46545532)",106900,Maunu-Horahora,4.29745554,4.29745554,1716685.3432,6044390.56295,-35.73757136,174.29037127,2627392.51529657,6606208.46545532
"POINT (2629146.177976 6607350.19290582)",107000,Woodhill-Vinetown,1.38522205,1.38522205,1718435.56895,6045536.25365,-35.727035,174.30955264,2629146.177976,6607350.19290582
"POINT (2630478.14326822 6607169.74797938)",107100,Whangarei Central,2.81299371,2.81299371,1719767.5343,6045359.1823,-35.72846995,174.32430322,2630478.14326822,6607169.74797938
"POINT (2631870.59780116 6607422.18757283)",107200,Riverside,3.50780578,3.50780578,1721158.8975,6045615.0001,-35.72599375,174.33964555,2631870.59780116,6607422.18757283
"POINT (2628148.58242032 6604851.89360178)",107300,Raumanga,3.46035972,3.46035972,1717444.5161,6043036.33625,-35.74968804,174.29896302,2628148.58242032,6604851.89360178
"POINT (2629073.58917084 6605709.33187086)",107400,Tarewa,0.94067805,0.94067805,1718367.08155,6043895.7743,-35.7418305,174.30903757,2629073.58917084,6605709.33187086
"POINT (2630079.95642409 6606297.3808288)",107500,Morningside (Whangarei District),1.20188251,1.20188251,1719371.6494,6044486.12135,-35.73638776,174.32005673,2630079.95642409,6606297.3808288
"POINT (2647913.74351211 6618398.9191953)",107600,Ngunguru,3.56520869,3.56520869,1737169.48365,6056628.53745,-35.62462501,174.51474389,2647913.74351211,6618398.9191953
"POINT (2626899.78240349 6601391.1483182)",107700,Otaika-Portland,41.34127459,41.34127459,1716204.70345,6039573.70095,-35.78104758,174.2857558,2626899.78240349,6601391.1483182
"POINT (2620399.54281597 6588745.11577135)",107800,Oakleigh-Mangapai,323.78100653,323.78100653,1709737.7061,6026916.311,-35.89588695,174.21595621,2620399.54281597,6588745.11577135
"POINT (2631024.48912769 6604852.20532891)",107900,Port-Limeburners,7.41161121,7.41161121,1720319.454,6043043.77845,-35.74927345,174.33075178,2631024.48912769,6604852.20532891
"POINT (2639914.0949229 6610511.79719567)",108000,Pataua,128.58726061,128.58726061,1729192.1068,6048723.67735,-35.69695195,174.42794425,2639914.0949229,6610511.79719567
"POINT (2634803.50108546 6604436.61136705)",108100,Onerahi Park,1.9996437,1.9996437,1724098.2649,6042637.69355,-35.75246425,174.37259829,2634803.50108546,6604436.61136705
"POINT (2633834.41866856 6604872.13494669)",108200,Sherwood Rise,1.30633937,1.30633937,1723128.4135,6043070.6712,-35.7486834,174.3618074,2633834.41866856,6604872.13494669
"POINT (2633958.14363353 6602928.86303131)",108300,Onerahi,2.29421222,2.29421222,1723256.91515,6041128.3423,-35.76617497,174.363527,2633958.14363353,6602928.86303131
"POINT (2638160.18861903 6598910.04160642)",108400,Inlet Whangarei Harbour,0,103.17545034,1727467.5637,6037121.1912,-35.80175652,174.41073294,2638160.18861903,6598910.04160642
"POINT (2639810.92400893 6603514.26367384)",108500,Parua Bay,39.0954391,39.0954391,1729106.40195,6041728.0661,-35.76001844,174.42812257,2639810.92400893,6603514.26367384
"POINT (2635526.70596863 6586389.4267453)",108600,Bream Bay,235.31798384,235.31798384,1724865.48425,6024598.11325,-35.91496801,174.38390319,2635526.70596863,6586389.4267453
"POINT (2644960.10526532 6594166.03551542)",108700,Marsden Bay,6.10249454,6.10249454,1734277.11,6032395.3797,-35.84344323,174.48686898,2644960.10526532,6594166.03551542
"POINT (2642218.80473186 6590301.44775418)",108800,Ruakaka,15.79852036,15.79852036,1731546.05455,6028525.21685,-35.87869623,174.45727498,2642218.80473186,6590301.44775418
"POINT (2649440.08349951 6596784.09927156)",108900,Bream Head,52.18004192,52.18004192,1738749.38975,6035023.73555,-35.81913112,174.53591875,2649440.08349951,6596784.09927156
"POINT (2641339.57183918 6573157.32800608)",109000,Waipu,136.59458638,136.59458638,1730708.37245,6011384.01345,-36.03330412,174.45082085,2641339.57183918,6573157.32800608
"POINT (2569580.87611505 6607875.43091168)",109100,Kaipara Coastal,1248.06198971,1248.06198971,1658895.53575,6045913.06575,-35.72900181,173.65124289,2569580.87611505,6607875.43091168
"POINT (2598299.78528053 6591146.14844912)",109200,Maungaru,691.9661207,691.9661207,1687641.19085,6029262.82865,-35.87696287,173.97089153,2598299.78528053,6591146.14844912
"POINT (2588680.47802811 6584352.46751365)",109300,Dargaville,12.55839585,12.55839585,1678042.8082,6022449.07015,-35.93920158,173.86524045,2588680.47802811,6584352.46751365
"POINT (2613832.12641813 6567877.38505298)",109400,Ruawai-Matakohe,530.44403267,530.44403267,1703222.55065,6006040.8644,-36.08477059,174.14649781,2613832.12641813,6567877.38505298
"POINT (2629542.85053777 6554161.48011838)",109500,Otamatea (Kaipara District),244.89158927,244.89158927,1718959.61345,5992366.32825,-36.20622411,174.32331996,2629542.85053777,6554161.48011838
"POINT (2631840.557538 6564856.91838523)",109600,Maungaturoto,21.59969701,21.59969701,1721231.7843,6003063.6784,-36.10952458,174.34693916,2631840.557538,6564856.91838523
"POINT (2638204.62073294 6554549.1883053)",109700,Kaiwaka,259.02591836,259.02591836,1727617.90595,5992773.8721,-36.20144738,174.41954369,2638204.62073294,6554549.1883053
"POINT (2649708.90079537 6563676.89585164)",109800,Mangawhai Rural,91.18003775,91.18003775,1739097.8832,6001925.93945,-36.11738276,174.54557961,2649708.90079537,6563676.89585164
"POINT (2653221.11228228 6566160.65737452)",109900,Mangawhai Heads,6.98889597,6.98889597,1742603.3887,6004417.3813,-36.09442027,174.58406666,2653221.11228228,6566160.65737452
"POINT (2654046.58264472 6563535.30676736)",110000,Inlet Mangawhai Harbour,0,5.86889674,1743434.85565,6001794.59395,-36.11793515,174.59377708,2654046.58264472,6563535.30676736
"POINT (2652475.84978621 6562795.71242796)",110100,Mangawhai,1.99427586,1.99427586,1741866.2306,6001051.4766,-36.12486297,174.57648718,2652475.84978621,6562795.71242796
"POINT (2643266.59111173 6541731.92468029)",110200,Okahukura Peninsula,211.18081304,211.18081304,1732707.76105,5979971.63635,-36.31614337,174.47831639,2643266.59111173,6541731.92468029
"POINT (2629400.6875082 6526701.54204612)",110300,Inlet Kaipara Harbour South,0,391.72449421,1718879.01155,5964914.61085,-36.45365718,174.32661216,2629400.6875082,6526701.54204612
"POINT (2656692.61766964 6548345.77484434)",110400,Cape Rodney,370.64774254,370.64774254,1746115.63755,5986614.5461,-36.25433822,174.62638047,2656692.61766964,6548345.77484434
"POINT (2647193.23327364 6544247.66361841)",110500,Wellsford,4.55282827,4.55282827,1736627.74195,5982495.6469,-36.2928483,174.52152782,2647193.23327364,6544247.66361841
"POINT (2705384.00319423 6545379.08130113)",110600,Oceanic Auckland Region East,0,7823.24088442,1794808.5129,5983761.3101,-36.27144929,175.16877457,2705384.00319423,6545379.08130113
"POINT (2627870.48002651 6511201.0696107)",110700,South Head,339.79389712,339.79389712,1717382.5173,5949415.471,-36.59353204,174.31227374,2627870.48002651,6511201.0696107
"POINT (2643921.27518978 6525366.73676553)",110800,Kaipara Hills,282.59738123,282.59738123,1733398.64385,5963611.93615,-36.46348663,174.48881947,2643921.27518978,6525366.73676553
"POINT (2661923.48201134 6538627.93286867)",110900,Dome Valley-Matakana,84.7499658,84.7499658,1751367.65415,5976910.488,-36.34097815,174.68669921,2661923.48201134,6538627.93286867
"POINT (2625973.0391501 6476892.00559598)",111000,Oceanic Auckland Region West,0,2384.01250114,1715555.51375,5915112.26645,-36.90291297,174.29704734,2625973.0391501,6476892.00559598
"POINT (2658670.04814718 6533368.91210002)",111100,Warkworth West,11.35975247,11.35975247,1748126.63405,5971645.08355,-36.38893228,174.65160073,2658670.04814718,6533368.91210002
"POINT (2656093.27873408 6524585.94795289)",111200,Puhoi Valley,236.52996459,236.52996459,1745569.8,5962858.01835,-36.46850912,174.62475233,2656093.27873408,6524585.94795289
"POINT (2660098.53274575 6531525.90861512)",111300,Warkworth East,4.21863402,4.21863402,1749558.97805,5969805.60325,-36.40528692,174.66791942,2660098.53274575,6531525.90861512
"POINT (2662861.97197269 6532304.86351416)",111400,Sandspit,22.43923564,22.43923564,1752320.2081,5970590.60325,-36.39777901,174.69854725,2662861.97197269,6532304.86351416
"POINT (2671302.40022427 6535664.82903101)",111500,Tawharanui Peninsula,46.6707281,46.6707281,1760751.80615,5973969.07965,-36.36596181,174.79183013,2671302.40022427,6535664.82903101
"POINT (2643212.94980828 6509845.12168312)",111600,Te Kuru,80.93043952,80.93043952,1732723.87045,5948092.4107,-36.60344402,174.48396116,2643212.94980828,6509845.12168312
"POINT (2665201.46063863 6529764.8937185)",111700,Snells Beach,3.82725987,3.82725987,1754664.9923,5968056.26615,-36.42024184,174.72518871,2665201.46063863,6529764.8937185
"POINT (2728449.96506759 6552587.06351378)",111800,Barrier Islands,320.4141008,320.4141008,1817857.97415,5991024.6205,-36.20109801,175.42316367,2728449.96506759,6552587.06351378
"POINT (2666994.04905866 6525652.53447579)",111900,Algies Bay-Scotts Landing,15.36828354,15.36828354,1756466.4494,5963948.49215,-36.45696537,174.74610372,2666994.04905866,6525652.53447579
"POINT (2726926.99692548 6544593.0021411)",112000,Inlets other Auckland,0,123.16892795,1816354.1321,5983026.2655,-36.27348144,175.40866062,2726926.99692548,6544593.0021411
"POINT (2650358.28658726 6511747.80247657)",112100,Wainui-Waiwera,78.7150854,78.7150854,1739863.6782,5950009.90515,-36.58514355,174.56341509,2650358.28658726,6511747.80247657
"POINT (2638819.04299273 6503906.48215705)",112200,Parakai,1.45487644,1.45487644,1728343.45705,5942145.9004,-36.65763462,174.43599289,2638819.04299273,6503906.48215705
"POINT (2644440.88067973 6504708.98996451)",112300,Helensville Rural,56.91997862,56.91997862,1733962.3473,5942960.0163,-36.64952348,174.4986995,2644440.88067973,6504708.98996451
"POINT (2640418.2936561 6501955.04847854)",112400,Helensville,3.36590766,3.36590766,1729946.3976,5940198.2722,-36.67496915,174.45425272,2640418.2936561,6501955.04847854
"POINT (2652113.38657051 6505921.02466631)",112500,Waitoki,40.75529776,40.75529776,1741630.81325,5944187.9736,-36.63734759,174.58423463,2652113.38657051,6505921.02466631
"POINT (2645844.6819181 6497983.53258417)",112600,Waikoukou Valley,52.8545831,52.8545831,1735379.86875,5936238.8997,-36.70989198,174.51574111,2645844.6819181,6497983.53258417
"POINT (2660429.00034455 6512006.56743213)",112700,Orewa North,3.0420543,3.0420543,1749932.10865,5950290.20415,-36.58108865,174.67586463,2660429.00034455,6512006.56743213
"POINT (2661660.42957175 6513210.97665288)",112800,Hatfields Beach,0.92325487,0.92325487,1751160.7656,5951497.07935,-36.57001949,174.68935557,2661660.42957175,6513210.97665288
"POINT (2661296.84784188 6510985.37945313)",112900,Orewa South,2.31160628,2.31160628,1750802.0188,5949271.0348,-36.59013546,174.685784,2661296.84784188,6510985.37945313
"POINT (2662078.76068377 6511288.57978745)",113000,Orewa Central,1.45284321,1.45284321,1751583.16915,5949575.8682,-36.58726477,174.6944528,2662078.76068377,6511288.57978745
"POINT (2660063.57918704 6509748.36190517)",113100,Millwater North,1.75217359,1.75217359,1749571.5786,5948031.5638,-36.6014983,174.67227556,2660063.57918704,6509748.36190517
"POINT (2637224.30881154 6490453.95653932)",113200,Waipatukahu,52.05879697,52.05879697,1726776.8372,5928693.2391,-36.77908114,174.42070067,2637224.30881154,6490453.95653932
"POINT (2659837.35182549 6508552.72952813)",113300,Millwater South,2.41113494,2.41113494,1749347.93635,5946835.63155,-36.61231012,174.67000848,2659837.35182549,6508552.72952813
"POINT (2658312.87278794 6504987.85219219)",113400,Dairy Flat North,22.96899967,22.96899967,1747831.25095,5943268.0678,-36.6446947,174.65374224,2658312.87278794,6504987.85219219
"POINT (2655143.32923165 6502128.32229232)",113500,Dairy Flat West,30.97978859,30.97978859,1744668.2197,5940402.32165,-36.67100483,174.61891208,2655143.32923165,6502128.32229232
"POINT (2661327.38563383 6509216.7664068)",113600,Kingsway,0.9031104,0.9031104,1750836.3368,5947502.74985,-36.60606427,174.68651435,2661327.38563383,6509216.7664068
"POINT (2651056.77010898 6497361.97205943)",113700,Riverhead Forest,48.42763587,48.42763587,1740592.28435,5935628.26085,-36.71463745,174.57419307,2651056.77010898,6497361.97205943
"POINT (2660252.18760955 6507244.87426103)",113800,Silverdale Central (Auckland),3.36140307,3.36140307,1749765.4955,5945528.85815,-36.62402013,174.6749306,2660252.18760955,6507244.87426103
"POINT (2662116.13923685 6508623.35179004)",113900,Red Beach West,1.83998367,1.83998367,1751626.24685,5946911.10645,-36.61127031,174.69545963,2662116.13923685,6508623.35179004
"POINT (2662971.45004086 6509200.10871064)",114000,Red Beach East,1.56444435,1.56444435,1752480.2078,5947489.60975,-36.60592118,174.70488989,2662971.45004086,6509200.10871064
"POINT (2661734.56908209 6506774.26006425)",114100,Silverdale South (Auckland),10.18954365,10.18954365,1751248.66845,5945061.46605,-36.62799753,174.69160348,2661734.56908209,6506774.26006425
"POINT (2641125.91710941 6490218.64680506)",114200,Waimauku,5.63314315,5.63314315,1730678.0493,5928465.91025,-36.7805997,174.46444508,2641125.91710941,6490218.64680506
"POINT (2675997.0944766 6488818.5276409)",114300,Gulf Islands,66.09614073,66.09614073,1765547.4738,5927137.35315,-36.787119,174.85533201,2675997.0944766,6488818.5276409
"POINT (2664120.99956428 6507840.51039178)",114400,Vipond,1.38113819,1.38113819,1753632.5079,5946132.6535,-36.61796366,174.7180399,2664120.99956428,6507840.51039178
"POINT (2637898.36418797 6485318.04209105)",114500,Muriwai,3.01225115,3.01225115,1727461.1229,5923559.84975,-36.82525102,174.42922639,2637898.36418797,6485318.04209105
"POINT (2664932.79769333 6507264.9860261)",114600,Stanmore Bay West,0.98684481,0.98684481,1754445.42965,5945558.93645,-36.62300197,174.72724226,2664932.79769333,6507264.9860261
"POINT (2646184.40898638 6489042.69189574)",114700,Kumeu Rural West,24.43335565,24.43335565,1735737.91385,5927300.4741,-36.79039063,174.52133836,2646184.40898638,6489042.69189574
"POINT (2663286.26605479 6502401.76015106)",114800,Okura Bush,28.98872701,28.98872701,1752809.4182,5940692.8519,-36.66711378,174.70992257,2663286.26605479,6502401.76015106
"POINT (2665469.39866548 6505743.16038351)",114900,Whangaparoa Central,3.6915778,3.6915778,1754985.20455,5944038.4467,-36.63661523,174.73358327,2665469.39866548,6505743.16038351
"POINT (2648146.78049183 6491272.37432059)",115000,Kumeu-Huapai,6.3210669,6.3210669,1737695.37095,5929533.7473,-36.76998293,174.54286666,2648146.78049183,6491272.37432059
"POINT (2666217.25379356 6506537.08000327)",115100,Stanmore Bay East,1.33781837,1.33781837,1755731.2799,5944833.8599,-36.6293262,174.74176363,2666217.25379356,6506537.08000327
"POINT (2667212.95834561 6506068.51755621)",115200,Manly West,1.0323979,1.0323979,1756727.86635,5944367.4746,-36.63336524,174.75300037,2667212.95834561,6506068.51755621
"POINT (2641575.44858104 6485867.36316885)",115300,Muriwai Valley-Bethells Beach,35.35470719,35.35470719,1731136.30205,5924116.4463,-36.8197327,174.47032818,2641575.44858104,6485867.36316885
"POINT (2669400.89092593 6507880.16301566)",115400,Tindalls-Matakatia,2.93347637,2.93347637,1758911.68855,5946183.5858,-36.61663904,174.77704003,2669400.89092593,6507880.16301566
"POINT (2657218.37116622 6496349.85177536)",115500,Coatesville,24.36637718,24.36637718,1746755.0096,5934629.0876,-36.72270876,174.64336292,2657218.37116622,6496349.85177536
"POINT (2660475.02834849 6499295.2168839)",115600,Dairy Flat South,15.21709972,15.21709972,1750005.0679,5937580.8266,-36.6956027,174.67916408,2660475.02834849,6499295.2168839
"POINT (2670946.50294278 6508640.89870778)",115700,Gulf Harbour North,1.75709588,1.75709588,1760455.50915,5946947.55265,-36.60949658,174.79413674,2670946.50294278,6508640.89870778
"POINT (2667953.97977372 6506050.64131445)",115800,Manly East,1.57463079,1.57463079,1757468.8425,5944351.17875,-36.63338986,174.76128799,2667953.97977372,6506050.64131445
"POINT (2651817.33731202 6492523.44832876)",115900,Riverhead,4.05197196,4.05197196,1741362.72535,5930792.12665,-36.75810331,174.58371179,2651817.33731202,6492523.44832876
"POINT (2673561.55057148 6509074.25915824)",116000,Army Bay,6.21560447,6.21560447,1763069.3753,5947386.4881,-36.60509803,174.82325733,2673561.55057148,6509074.25915824
"POINT (2650963.13103047 6490488.41082507)",116100,Kumeu Rural East,14.92218201,14.92218201,1740512.83595,5928755.67755,-36.77658085,174.57456886,2650963.13103047,6490488.41082507
"POINT (2671079.69683143 6507117.56436837)",116200,Gulf Harbour South,2.42885442,2.67530904,1760591.95415,5945424.6593,-36.62319574,174.79598006,2671079.69683143,6507117.56436837
"POINT (2654692.33207163 6492805.91337871)",116300,Paremoremo West,9.47118767,9.47118767,1744236.6815,5931080.45675,-36.75507226,174.61584322,2654692.33207163,6492805.91337871
"POINT (2649058.04942007 6485521.41951973)",116400,Taupaki,27.20363525,27.20363525,1738618.17835,5923785.65835,-36.82164682,174.5542496,2649058.04942007,6485521.41951973
"POINT (2665305.13875991 6499880.54914538)",116500,Long Bay,2.78715748,2.78715748,1754833.35195,5938176.2042,-36.68946348,174.73306962,2665305.13875991,6499880.54914538
"POINT (2658664.302379 6493312.69437807)",116600,Paremoremo East,11.60727229,11.60727229,1748207.03365,5931595.3496,-36.74982031,174.66020526,2658664.302379,6493312.69437807
"POINT (2661752.79295662 6496787.99709697)",116700,Albany Heights,3.10401049,3.10401049,1751287.90785,5935076.60115,-36.71796472,174.69401393,2661752.79295662,6496787.99709697
"POINT (2664768.91414721 6498732.93069602)",116800,Awaruku,1.52194123,1.52194123,1754299.59625,5937027.59805,-36.69990012,174.72732927,2664768.91414721,6498732.93069602
"POINT (2663804.70681198 6497623.11009854)",116900,Fairview Heights,1.60195262,1.60195262,1753337.8267,5935915.8904,-36.71007322,174.71678985,2663804.70681198,6497623.11009854
"POINT (2655114.12827084 6488740.4950454)",117000,Whenuapai,19.68007147,19.68007147,1744666.75385,5927016.51215,-36.79162758,174.62143068,2655114.12827084,6488740.4950454
"POINT (2644068.05737072 6477051.13737664)",117100,Waitakere Ranges North,86.79304966,86.79304966,1733646.01615,5915306.9275,-36.89876888,174.50001,2644068.05737072,6477051.13737664
"POINT (2666888.18024828 6499220.14747202)",117200,Torbay,1.43387594,1.43387594,1756417.60455,5937519.20065,-36.69512414,174.75092916,2666888.18024828,6499220.14747202
"POINT (2662696.78889772 6495633.01723173)",117300,Albany Central,3.21005397,3.21005397,1752234.19395,5933923.72665,-36.72820186,174.70483518,2662696.78889772,6495633.01723173
"POINT (2661153.50706046 6494191.15102778)",117400,Albany West,2.05684939,2.05684939,1750694.09635,5932478.8368,-36.7414674,174.68787988,2661153.50706046,6494191.15102778
"POINT (2665946.98871707 6498553.404231)",117500,Glamorgan,0.95916761,0.95916761,1755477.9144,5936850.5582,-36.70130329,174.7405506,2665946.98871707,6498553.404231
"POINT (2664262.13910316 6496891.84014027)",117600,Oteha East,0.7675859,0.7675859,1753796.7338,5935185.65945,-36.71657898,174.72207262,2664262.13910316,6496891.84014027
"POINT (2665049.87315253 6497422.26994578)",117700,Northcross,1.07045666,1.07045666,1754583.26885,5935717.6728,-36.71165743,174.7307683,2665049.87315253,6497422.26994578
"POINT (2663785.01088034 6496292.21873174)",117800,Oteha West,0.52993903,0.52993903,1753320.9127,5934585.1133,-36.72206732,174.71686745,2663785.01088034,6496292.21873174
"POINT (2666278.55866647 6497953.1925128)",117900,Waiake,1.24892146,1.24892146,1755810.70695,5936251.1051,-36.70665026,174.7443967,2666278.55866647,6497953.1925128
"POINT (2647780.84959991 6481622.93745566)",118000,Waitakere,15.29077813,15.29077813,1737349.0404,5919885.2841,-36.85697982,174.54072919,2647780.84959991,6481622.93745566
"POINT (2663089.24667874 6494446.275824)",118100,Albany South,1.48565737,1.48565737,1752629.0717,5932737.9405,-36.73882334,174.70949248,2663089.24667874,6494446.275824
"POINT (2664953.81253091 6496299.61369042)",118200,Browns Bay South West,1.15033555,1.15033555,1754489.56485,5934594.9411,-36.72178932,174.72994649,2664953.81253091,6496299.61369042
"POINT (2666160.12195067 6497109.19088116)",118300,Browns Bay Central,1.18361569,1.18361569,1755694.0503,5935406.94585,-36.71427585,174.74326307,2666160.12195067,6497109.19088116
"POINT (2661035.51521884 6492554.61715685)",118400,Schnapper Rock,2.21506546,2.21506546,1750579.50565,5930842.26355,-36.75623258,174.68691977,2661035.51521884,6492554.61715685
"POINT (2664368.60836528 6495251.68369693)",118500,Pinehill,1.62934248,1.62934248,1753906.6108,5933545.9107,-36.73133656,174.72363265,2664368.60836528,6495251.68369693
"POINT (2663567.12016114 6493606.34111434)",118600,North Harbour,5.48639767,5.48639767,1753108.632,5931899.09255,-36.74630474,174.71502975,2663567.12016114,6493606.34111434
"POINT (2665640.15836933 6495956.30113668)",118700,Browns Bay South East,0.85629308,0.85629308,1755176.5514,5934253.0953,-36.72475755,174.73770545,2665640.15836933,6495956.30113668
"POINT (2653668.94172838 6486215.01159398)",118800,Westgate Central,1.8634158,1.8634158,1743226.922,5924488.46785,-36.81462711,174.60577445,2653668.94172838,6486215.01159398
"POINT (2659804.1355463 6490658.39425613)",118900,Greenhithe West,2.72201146,2.72201146,1749352.1879,5928943.74565,-36.77353411,174.67354745,2659804.1355463,6490658.39425613
"POINT (2666499.25109231 6496072.46078226)",119000,Rothesay Bay,0.86585503,0.86585503,1756035.31005,5934371.032,-36.7235541,174.74729392,2666499.25109231,6496072.46078226
"POINT (2661233.06559267 6491677.12724133)",119100,Greenhithe East,1.4377182,1.4377182,1750778.84255,5929965.28915,-36.7641032,174.68932537,2661233.06559267,6491677.12724133
"POINT (2655673.24600415 6486705.46851274)",119200,Hobsonville,2.17407942,2.17407942,1745229.936,5924982.9193,-36.80986626,174.62812848,2655673.24600415,6486705.46851274
"POINT (2662471.11777233 6483426.84818476)",119300,Inlet Waitemata Harbour,0,79.36815183,1752033.6043,5921718.4926,-36.83821248,174.70502503,2662471.11777233,6483426.84818476
"POINT (2661661.11194517 6490834.19106502)",119400,Greenhithe South,3.64452286,3.64452286,1751208.5738,5929123.3359,-36.77162145,174.69430513,2661661.11194517,6490834.19106502
"POINT (2665985.38774773 6495169.9927622)",119500,Murrays Bay West,0.95565783,0.95565783,1755523.38285,5933467.5887,-36.73177873,174.74174762,2665985.38774773,6495169.9927622
"POINT (2653834.17958031 6484826.62711316)",119600,Westgate South,1.70943132,1.70943132,1743394.94625,5923100.62715,-36.82710769,174.60791923,2653834.17958031,6484826.62711316
"POINT (2665425.95551306 6494296.29208713)",119700,Windsor Park,0.8358418,0.8358418,1754965.8283,5932592.81865,-36.73975221,174.73568351,2665425.95551306,6494296.29208713
"POINT (2655156.00941003 6485731.81938929)",119800,West Harbour West,1.96049692,1.96049692,1744714.74965,5924008.361,-36.81872701,174.62254037,2655156.00941003,6485731.81938929
"POINT (2663206.52852606 6492219.5434943)",119900,Unsworth Heights West,0.74886125,0.74886125,1752750.95205,5930511.7084,-36.75886381,174.71130257,2663206.52852606,6492219.5434943
"POINT (2666868.69133747 6495235.11768387)",120000,Murrays Bay East,0.69854186,0.69854186,1756406.45885,5933534.54375,-36.7310303,174.75161954,2666868.69133747,6495235.11768387
"POINT (2651890.89265842 6482254.98972393)",120100,Birdwood West,5.93628175,5.93628175,1741457.1374,5920525.4689,-36.85060481,174.58667717,2651890.89265842,6482254.98972393
"POINT (2658698.23539874 6488084.64579282)",120200,Hobsonville Point,3.53881189,3.53881189,1748251.704,5926368.06585,-36.79691625,174.66172203,2658698.23539874,6488084.64579282
"POINT (2656466.95939831 6486615.47727564)",120300,West Harbour Clearwater Cove,1.35746453,1.67756469,1746023.7206,5924894.5531,-36.81054038,174.63704103,2656466.95939831,6486615.47727564
"POINT (2663968.98635451 6492518.57414583)",120400,Unsworth Heights East,1.10807496,1.10807496,1753512.7051,5930812.2789,-36.75603242,174.71977269,2663968.98635451,6492518.57414583
"POINT (2666398.84996015 6494405.68816304)",120500,Mairangi Bay North,0.92453074,0.92453074,1755938.3928,5932704.22225,-36.73858904,174.74654933,2666398.84996015,6494405.68816304
"POINT (2653639.76818193 6483499.39570377)",120600,Massey Central,0.88452792,0.88452792,1743203.24295,5921773.20195,-36.83909835,174.60602048,2653639.76818193,6483499.39570377
"POINT (2656443.80997721 6485785.3447105)",120700,West Harbour Luckens Point,0.9837843,0.9837843,1746002.25995,5924064.4891,-36.81802341,174.63695983,2656443.80997721,6485785.3447105
"POINT (2666574.23144027 6493812.32658656)",120800,Mairangi Bay South,0.80141814,0.80141814,1756114.98975,5932111.2849,-36.74390273,174.74864765,2666574.23144027,6493812.32658656
"POINT (2654231.75267751 6484020.9175379)",120900,Massey Royal Road West,0.89641575,0.89641575,1743794.0881,5922295.84,-36.83429912,174.61254552,2654231.75267751,6484020.9175379
"POINT (2663366.82425904 6490980.7353386)",121000,Bayview East,1.3746752,1.3746752,1752913.78585,5929273.37085,-36.76999591,174.71337437,2663366.82425904,6490980.7353386
"POINT (2650436.60540836 6478897.71430193)",121100,Swanson Rural,15.14912979,15.14912979,1740009.7928,5917165.8161,-36.881095,174.57106823,2650436.60540836,6478897.71430193
"POINT (2665408.36236672 6492574.84397719)",121200,Sunnynook South,0.80161344,0.80161344,1754951.8081,5930871.51615,-36.75526458,174.73587597,2665408.36236672,6492574.84397719
"POINT (2665937.6361966 6493052.06687981)",121300,Sunnynook North,0.74464289,0.74464289,1755480.03775,5931349.784,-36.75086862,174.74169364,2665937.6361966,6493052.06687981
"POINT (2662572.51802924 6490339.09863564)",121400,Bayview West,0.73414884,0.73414884,1752120.89155,5928630.1744,-36.77591921,174.70462204,2662572.51802924,6490339.09863564
"POINT (2664882.40477347 6492097.77431994)",121500,Totara Vale North,0.86679243,0.86679243,1754426.8936,5930393.4106,-36.75965827,174.73009473,2664882.40477347,6492097.77431994
"POINT (2655599.71074419 6484637.29945022)",121600,Royal Heights North,1.4951159,1.4951159,1745160.604,5922914.89565,-36.82851197,174.62774619,2655599.71074419,6484637.29945022
"POINT (2653742.87806769 6482300.07783504)",121700,Massey West,1.18469773,1.18469773,1743308.7514,5920574.26965,-36.84988607,174.60742952,2653742.87806769,6482300.07783504
"POINT (2660889.59817058 6488445.81976828)",121800,Beach Haven West,1.20746209,1.20746209,1750442.05415,5926733.6702,-36.79327636,174.68619139,2660889.59817058,6488445.81976828
"POINT (2664479.5219208 6491420.50316508)",121900,Totara Vale South,0.8961397,0.8961397,1754025.45335,5929715.38115,-36.76583308,174.72573604,2664479.5219208,6491420.50316508
"POINT (2651678.83179655 6480672.68875247)",122000,Swanson,1.89457019,1.89457019,1741248.28095,5918942.9896,-36.86489607,174.58462975,2651678.83179655,6480672.68875247
"POINT (2662467.05845511 6489669.05534744)",122100,Bayview South,0.93345761,0.93345761,1752016.82135,5927959.99175,-36.78197477,174.70359001,2662467.05845511,6489669.05534744
"POINT (2667242.35004581 6493171.9940062)",122200,Campbells Bay,1.74294503,1.74294503,1756784.37135,5931472.4004,-36.74954905,174.75627345,2667242.35004581,6493171.9940062
"POINT (2655636.27851148 6483855.60151816)",122300,Royal Heights South,1.13131504,1.13131504,1745198.7462,5922133.3819,-36.83554837,174.62832303,2655636.27851148,6483855.60151816
"POINT (2661551.22432925 6488498.68106922)",122400,Beach Haven East,1.12103775,1.12103775,1751103.4936,5926787.87805,-36.79268258,174.69359128,2661551.22432925,6488498.68106922
"POINT (2654928.22230742 6482988.40850684)",122500,Massey East,1.14447088,1.14447088,1744492.5388,5921264.8845,-36.84348264,174.62057134,2654928.22230742,6482988.40850684
"POINT (2666356.07872473 6492342.65563094)",122600,Forrest Hill North,0.73717907,0.73717907,1755899.90735,5930641.3102,-36.75718347,174.7465398,2666356.07872473,6492342.65563094
"POINT (2664539.89128341 6490526.0188772)",122700,Glenfield North,0.80678426,0.80678426,1754087.6608,5928821.11705,-36.7738809,174.72661346,2664539.89128341,6490526.0188772
"POINT (2662203.33812322 6488374.81542975)",122800,Birkdale North,1.38573801,1.38573801,1751755.78545,5926665.36055,-36.79368225,174.70092376,2662203.33812322,6488374.81542975
"POINT (2654530.06726276 6482278.12783544)",122900,Massey South,1.38681668,1.38681668,1744095.87005,5920553.90475,-36.84994988,174.61625895,2654530.06726276,6482278.12783544
"POINT (2653255.88514973 6481180.12939071)",123000,Ranui North,1.02923012,1.02923012,1742824.0784,5919453.51015,-36.86005874,174.60220592,2653255.88514973,6481180.12939071
"POINT (2663742.42686066 6489564.99663548)",123100,Glenfield West,0.9701519,0.9701519,1753292.26,5927858.56035,-36.78268321,174.71789792,2663742.42686066,6489564.99663548
"POINT (2657484.6839481 6484818.35740674)",123200,Te Atatu Peninsula North West,1.11259918,1.11259918,1747044.95305,5923099.7422,-36.82655522,174.64883254,2657484.6839481,6484818.35740674
"POINT (2663281.51697621 6488826.7890382)",123300,Glenfield South West,1.19104282,1.19104282,1752832.9163,5927119.48915,-36.78941699,174.71290056,2663281.51697621,6488826.7890382
"POINT (2666204.15686295 6491038.77735612)",123400,Forrest Hill West,1.23523515,1.23523515,1755750.69655,5929337.24865,-36.76895837,174.7451352,2666204.15686295,6491038.77735612
"POINT (2665247.37486143 6490547.89429907)",123500,Wairau Valley,2.56373017,2.56373017,1754795.0247,5928844.44535,-36.77355541,174.73453173,2665247.37486143,6490547.89429907
"POINT (2666848.01184767 6491541.11835871)",123600,Forrest Hill East,0.92449513,0.92449513,1756393.4501,5929840.86795,-36.76431463,174.7522307,2666848.01184767,6491541.11835871
"POINT (2667709.64292338 6491958.0737766)",123700,Castor Bay,1.44377056,1.44377056,1757254.1358,5930259.56285,-36.76039959,174.76178337,2667709.64292338,6491958.0737766
"POINT (2653428.03541559 6480528.63190197)",123800,Ranui Domain,0.87018239,0.87018239,1742997.50795,5918802.4539,-36.86589923,174.60427343,2653428.03541559,6480528.63190197
"POINT (2661573.40490308 6486892.67100701)",123900,Beach Haven South,1.34039733,1.34039733,1751128.95255,5925182.10175,-36.80714782,174.69419527,2661573.40490308,6486892.67100701
"POINT (2664449.7982169 6489315.40850795)",124000,Glenfield Central,1.12786017,1.12786017,1754000.06785,5927610.44995,-36.78480405,174.72587699,2664449.7982169,6489315.40850795
"POINT (2641649.04667414 6470090.24100524)",124100,Piha,5.23830468,5.23830468,1731241.0881,5908342.64105,-36.96186554,174.47423421,2641649.04667414,6470090.24100524
"POINT (2652493.79524866 6479928.72514579)",124200,Ranui South West,0.73694345,0.73694345,1742064.6067,5918200.769,-36.87146189,174.59392367,2652493.79524866,6479928.72514579
"POINT (2654663.78099381 6481243.51385986)",124300,Henderson Larnoch,0.96975579,0.96975579,1744231.64235,5919519.7075,-36.85924837,174.61797776,2654663.78099381,6481243.51385986
"POINT (2662787.82495293 6487615.14963309)",124400,Birkdale South,1.40729671,1.40729671,1752341.76,5925906.97485,-36.80042176,174.70764062,2662787.82495293,6487615.14963309
"POINT (2657723.66717724 6483759.08435808)",124500,Te Atatu Peninsula Central,1.11370438,1.11370438,1747286.0476,5922041.0923,-36.83605713,174.65174006,2657723.66717724,6483759.08435808
"POINT (2665237.27656726 6489803.69973396)",124600,Glenfield East,0.61847921,0.61847921,1754786.45995,5928100.3067,-36.78026196,174.73458692,2665237.27656726,6489803.69973396
"POINT (2650215.96969363 6476091.31211214)",124700,Henderson Valley,15.02367834,15.02367834,1739794.7584,5914359.42415,-36.90641583,174.56917384,2650215.96969363,6476091.31211214
"POINT (2657272.45147379 6482362.01004297)",124800,Te Atatu Peninsula West,1.42485167,1.42485167,1746837.7087,5920643.2916,-36.84872236,174.64698422,2657272.45147379,6482362.01004297
"POINT (2655209.67798736 6481172.07123221)",124900,Henderson Lincoln West,0.8979807,0.8979807,1744777.60575,5919449.36965,-36.85979867,174.62411351,2655209.67798736,6481172.07123221
"POINT (2653451.85796986 6479863.19232421)",125000,Ranui South East,0.94515226,0.94515226,1743022.65775,5918137.15975,-36.87189045,174.6046809,2653451.85796986,6479863.19232421
"POINT (2656106.02906183 6481587.62470874)",125100,Henderson Lincoln East,1.94435988,1.94435988,1745672.9993,5919866.66465,-36.85590078,174.63407425,2656106.02906183,6481587.62470874
"POINT (2663241.40274673 6486944.52599081)",125200,Birkenhead West,2.26268676,2.26268676,1752796.65715,5925237.35075,-36.80638223,174.71287204,2663241.40274673,6486944.52599081
"POINT (2658107.00979513 6482930.45454378)",125300,Te Atatu Peninsula East,1.80961684,1.80961684,1747671.01345,5921213.3436,-36.84345584,174.6562165,2658107.00979513,6482930.45454378
"POINT (2667543.06929442 6490751.75973158)",125400,Milford West,0.83338076,0.83338076,1757090.072,5929053.0179,-36.77129839,174.76019462,2667543.06929442,6490751.75973158
"POINT (2666938.94079512 6490180.20818551)",125500,Westlake,0.68702661,0.68702661,1756487.1798,5928480.27615,-36.77655884,174.75355966,2666938.94079512,6490180.20818551
"POINT (2666036.89921766 6488702.44098993)",125600,Hillcrest North (Auckland),0.979803,0.979803,1755588.266,5927000.7991,-36.79003781,174.74379298,2666036.89921766,6488702.44098993
"POINT (2655154.92261168 6480348.86460833)",125700,Henderson Lincoln South,1.35507716,1.35507716,1744724.5078,5918626.1683,-36.86722468,174.62367505,2655154.92261168,6480348.86460833
"POINT (2664637.64639446 6487859.53751757)",125800,Hillcrest West (Auckland),0.88492421,0.88492421,1754190.88265,5926155.1157,-36.7978865,174.72830919,2664637.64639446,6487859.53751757
"POINT (2668280.12576351 6490687.10526662)",125900,Milford Central,0.74357208,0.74357208,1757827.19425,5928989.8885,-36.77174474,174.76846358,2668280.12576351,6490687.10526662
"POINT (2653484.46822306 6478776.26549361)",126000,Summerland South,1.33401073,1.33401073,1743057.4325,5917050.4568,-36.88167753,174.6052759,2653484.46822306,6478776.26549361
"POINT (2654225.78983469 6479397.51494499)",126100,Summerland North,0.85091711,0.85091711,1743797.40795,5917673.0954,-36.87595448,174.61345826,2654225.78983469,6479397.51494499
"POINT (2665350.03588938 6488237.23773573)",126200,Hillcrest East (Auckland),1.06377776,1.06377776,1754902.4255,5926534.23485,-36.79435426,174.73620436,2665350.03588938,6488237.23773573
"POINT (2663003.25059548 6485619.14373103)",126300,Chatswood,3.06591655,3.06591655,1752561.23135,5923911.6282,-36.81836588,174.71049977,2663003.25059548,6485619.14373103
"POINT (2656812.62752094 6480601.44074469)",126400,Te Atatu South-Edmonton,1.06450047,1.06450047,1746381.48235,5918882.03065,-36.86466374,174.64220852,2656812.62752094,6480601.44074469
"POINT (2664490.81692196 6486813.71584211)",126500,Birkenhead North,1.01193257,1.01193257,1754046.2061,5925109.1025,-36.80733528,174.72689987,2664490.81692196,6486813.71584211
"POINT (2667589.68339851 6488773.87735671)",126600,Takapuna West,2.34723641,2.34723641,1757140.7567,5927075.4134,-36.78910918,174.76117008,2667589.68339851,6488773.87735671
"POINT (2655284.90128791 6479365.54787473)",126700,Henderson North,1.39367119,1.39367119,1744856.43495,5917643.24765,-36.87606154,174.6253423,2655284.90128791,6479365.54787473
"POINT (2668346.54028515 6489544.65340396)",126800,Takapuna Central,0.98523807,2.05181153,1757895.9595,5927847.67505,-36.78202515,174.76947038,2668346.54028515,6489544.65340396
"POINT (2654173.35473835 6478130.25941055)",126900,Western Heights (Auckland),1.35847366,1.35847366,1743747.50695,5916405.91545,-36.88738067,174.61313879,2654173.35473835,6478130.25941055
"POINT (2657464.26765753 6480861.20876554)",127000,Te Atatu South-Central,1.36315269,1.36315269,1747032.51665,5919143.07155,-36.86221041,174.64945896,2657464.26765753,6480861.20876554
"POINT (2666075.07969015 6487719.16891816)",127100,Northcote Central (Auckland),0.68691447,0.68691447,1755628.45955,5926017.7008,-36.79888947,174.74444417,2666075.07969015,6487719.16891816
"POINT (2666978.67384798 6487957.68528251)",127200,Akoranga,1.16291081,1.16291081,1756531.47925,5926258.04375,-36.79657499,174.75451244,2666978.67384798,6487957.68528251
"POINT (2665531.1781034 6486886.22140383)",127300,Northcote South (Auckland),1.1402653,1.1402653,1755086.3146,5925183.7235,-36.80649304,174.7385397,2665531.1781034,6486886.22140383
"POINT (2664775.8296036 6485844.08388686)",127400,Birkenhead South,1.36168693,1.36168693,1754333.1673,5924140.15035,-36.81601936,174.73031198,2664775.8296036,6485844.08388686
"POINT (2655607.46202621 6477847.1806683)",127500,Henderson Central,2.01570656,2.01570656,1745181.97975,5916125.73055,-36.88968581,174.62928426,2655607.46202621,6477847.1806683
"POINT (2652458.43577222 6474281.45429554)",127600,Waiatarua,11.28314106,11.28314106,1742040.45075,5912554.2733,-36.92234659,174.59471127,2652458.43577222,6474281.45429554
"POINT (2657208.8299575 6479545.08352531)",127700,Te Atatu South-McLeod North,1.00774866,1.00774866,1746779.74865,5917826.6047,-36.87411227,174.64687905,2657208.8299575,6479545.08352531
"POINT (2654519.69761427 6477583.13825386)",127800,Henderson Valley Park,0.74972535,0.74972535,1744094.8898,5915859.56025,-36.8922509,174.61713959,2654519.69761427,6477583.13825386
"POINT (2656590.65101627 6478971.71172631)",127900,Henderson North East,0.80084123,0.80084123,1746162.796,5917252.0722,-36.87938504,174.6400701,2656590.65101627,6478971.71172631
"POINT (2647014.4564372 6466947.8818609)",128000,Waitakere Ranges South,101.55819574,101.55819574,1736611.60795,5905211.2368,-36.9893191,174.53510888,2647014.4564372,6466947.8818609
"POINT (2666631.71200689 6486749.50129794)",128100,Northcote Tuff Crater,1.11349965,1.21439161,1756187.02265,5925049.2632,-36.8075236,174.75090118,2666631.71200689,6486749.50129794
"POINT (2666042.91155398 6485807.463073)",128200,Northcote Point (Auckland),1.17316392,1.17316392,1755600.20025,5924106.11315,-36.81611854,174.74451838,2666042.91155398,6485807.463073
"POINT (2654847.77702542 6476836.25045779)",128300,McLaren Park,1.08839966,1.08839966,1744424.4076,5915113.4279,-36.89892389,174.62097855,2654847.77702542,6476836.25045779
"POINT (2656436.25942883 6478157.05341967)",128400,Henderson East,0.79307801,0.79307801,1746010.04985,5916437.21285,-36.88675131,174.63851372,2656436.25942883,6478157.05341967
"POINT (2657483.85681839 6478792.49397868)",128500,Te Atatu South-McLeod South,1.10520842,1.10520842,1747056.24455,5917074.6612,-36.88084491,174.65012599,2657483.85681839,6478792.49397868
"POINT (2669346.00547301 6488059.8625447)",128600,Takapuna South,0.50774882,0.50774882,1758898.3943,5926365.06305,-36.79521645,174.78100858,2669346.00547301,6488059.8625447
"POINT (2659772.6127464 6478746.30277543)",128700,Rosebank Peninsula,2.36288135,2.36288135,1749344.81515,5917033.0484,-36.88086056,174.67580445,2659772.6127464,6478746.30277543
"POINT (2668971.44190931 6487467.49516744)",128800,Hauraki,1.09537724,1.09537724,1758525.0773,5925771.97725,-36.80062296,174.77694957,2668971.44190931,6487467.49516744
"POINT (2657362.74003491 6477546.63515567)",128900,Glendene North,1.40683624,1.40683624,1746937.62745,5915828.71875,-36.89209039,174.64903698,2657362.74003491,6477546.63515567
"POINT (2655706.73180485 6476288.23866563)",129000,Sunnyvale West-Parrs Park,0.84167882,0.84167882,1745284.33225,5914567.19575,-36.9037139,174.63073132,2655706.73180485,6476288.23866563
"POINT (2656767.26738854 6476729.40213369)",129100,Sunnyvale East,2.66156357,2.66156357,1746343.85525,5915010.40595,-36.89955638,174.64253379,2656767.26738854,6476729.40213369
"POINT (2662182.11875667 6480387.29676225)",129200,Point Chevalier West,1.37246778,1.37246778,1751750.76495,5918678.6873,-36.86564859,174.70246177,2662182.11875667,6480387.29676225
"POINT (2669963.32638017 6486941.43523572)",129300,Belmont (Auckland),1.15328719,1.15328719,1759517.96,5925247.9904,-36.80517747,174.78818395,2669963.32638017,6486941.43523572
"POINT (2669032.38389872 6485968.48929347)",129400,Bayswater,1.09694838,1.20490232,1758589.0817,5924273.2201,-36.81411659,174.777979,2669032.38389872,6485968.48929347
"POINT (2657809.69977702 6477002.80006843)",129500,Glendene South,1.09858069,1.09858069,1747385.61355,5915285.84115,-36.89691229,174.65416828,2657809.69977702,6477002.80006843
"POINT (2655516.58562157 6475258.93741994)",129600,Glen Eden West,1.15452382,1.15452382,1745096.24715,5913537.6568,-36.91301994,174.62881821,2655516.58562157,6475258.93741994
"POINT (2664830.13768579 6482636.82674939)",129700,Herne Bay,0.87695477,0.87695477,1754393.9806,5920933.3216,-36.84490477,174.73164481,2664830.13768579,6482636.82674939
"POINT (2663648.72531836 6481605.21319628)",129800,Westmere North,0.64508194,0.64508194,1753214.76815,5919899.4266,-36.85441266,174.71863306,2663648.72531836,6481605.21319628
"POINT (2663220.85752086 6480216.41113153)",129900,Point Chevalier East,1.38070934,1.38070934,1752789.73915,5918509.90535,-36.86700191,174.71414708,2663220.85752086,6480216.41113153
"POINT (2653936.39220898 6471752.64300088)",130000,Oratia,17.19117463,17.19117463,1743523.16135,5910028.7304,-36.94487953,174.61183121,2653936.39220898,6471752.64300088
"POINT (2656189.95613318 6474981.98402989)",130100,Glen Eden Rosier,1.2449007,1.2449007,1745770.07655,5913262.07225,-36.91539926,174.63643274,2656189.95613318,6474981.98402989
"POINT (2666179.30713812 6483074.22936265)",130200,Saint Marys Bay,0.84151164,1.50811639,1755742.1382,5921373.4119,-36.84071817,174.74666884,2666179.30713812,6483074.22936265
"POINT (2663975.62997805 6480931.53385737)",130300,Westmere South-Western Springs,2.02147354,2.02147354,1753542.99765,5919226.4733,-36.86042307,174.72244945,2663975.62997805,6480931.53385737
"POINT (2665060.65573996 6482045.06802759)",130400,Ponsonby West,0.65007251,0.65007251,1754625.67265,5920342.08555,-36.85019424,174.73436269,2665060.65573996,6482045.06802759
"POINT (2658897.18919173 6477106.12816988)",130500,Kelston North,0.96688836,0.96688836,1748472.7659,5915391.32055,-36.89579137,174.66634449,2658897.18919173,6477106.12816988
"POINT (2660101.65790331 6477832.39226525)",130600,Avondale Rosebank,1.02743212,1.02743212,1749675.6477,5916119.90045,-36.88903628,174.67969557,2660101.65790331,6477832.39226525
"POINT (2670690.8061521 6485759.041583)",130700,Narrow Neck,1.82165746,1.82165746,1760247.8043,5924067.17395,-36.81569367,174.79661047,2670690.8061521,6485759.041583
"POINT (2658041.55473312 6475802.89900263)",130800,Glen Eden North,0.73469348,0.73469348,1747619.82005,5914086.54995,-36.90768225,174.6570296,2658041.55473312,6475802.89900263
"POINT (2656797.18424451 6474739.7545476)",130900,Glen Eden Woodglen,1.30115519,1.30115519,1746377.7055,5913021.07505,-36.9174767,174.64329812,2656797.18424451,6474739.7545476
"POINT (2658552.2851429 6476223.19613015)",131000,Kelston South,0.83674883,0.83674883,1748129.6563,5914507.8093,-36.90380643,174.66266792,2658552.2851429,6476223.19613015
"POINT (2661875.32452129 6478858.09153022)",131100,Waterview,1.11588506,1.11588506,1751447.06985,5917149.0308,-36.87948054,174.69936142,2661875.32452129,6478858.09153022
"POINT (2665702.70973692 6481900.52678557)",131200,Ponsonby East,0.70309519,0.70309519,1755267.95875,5920198.85395,-36.85137951,174.74159318,2665702.70973692,6481900.52678557
"POINT (2667173.95233261 6482766.35231274)",131300,Wynyard-Viaduct,0.60002227,0.71687003,1756737.31935,5921067.57575,-36.8433094,174.75788827,2667173.95233261,6482766.35231274
"POINT (2669550.50418962 6484575.80346486)",131400,Stanley Point,0.99187144,0.99187144,1759110.0021,5922881.7014,-36.82656718,174.7841077,2669550.50418962,6484575.80346486
"POINT (2657667.37605691 6474931.01534436)",131500,Glen Eden Central,1.24685079,1.24685079,1747247.4116,5913214.0331,-36.91560255,174.65302059,2657667.37605691,6474931.01534436
"POINT (2665166.41286153 6481088.59717231)",131600,Grey Lynn North,0.7250584,0.7250584,1754733.34985,5919385.9188,-36.85879216,174.73576481,2665166.41286153,6481088.59717231
"POINT (2660529.88962735 6477197.59972791)",131700,Avondale West (Auckland),0.7398201,0.7398201,1750105.09695,5915486.0333,-36.89467964,174.6846386,2660529.88962735,6477197.59972791
"POINT (2666487.63934339 6481793.37746992)",131800,Freemans Bay,1.03577817,1.03577817,1756053.03435,5920093.29905,-36.85220128,174.7504171,2666487.63934339,6481793.37746992
"POINT (2662612.37866157 6478558.67958467)",131900,Mount Albert West,1.39086731,1.39086731,1752184.64635,5916851.12465,-36.88204623,174.70769409,2662612.37866157,6478558.67958467
"POINT (2661520.43183924 6477747.91510416)",132000,Avondale North (Auckland),1.23589539,1.23589539,1751094.43395,5916038.264,-36.88954577,174.69562749,2661520.43183924,6477747.91510416
"POINT (2664974.08755865 6480467.70923126)",132100,Grey Lynn West,0.80088071,0.80088071,1754542.29305,5918764.70225,-36.8644209,174.73374895,2664974.08755865,6480467.70923126
"POINT (2663516.07043679 6479343.32229748)",132200,Mount Albert North,1.51386864,1.51386864,1753086.6753,5917637.4971,-36.87481471,174.71765308,2663516.07043679,6479343.32229748
"POINT (2659378.53370484 6476436.65447244)",132300,New Lynn North,0.73891938,0.73891938,1748955.3845,5914722.88375,-36.9017384,174.67189036,2659378.53370484,6476436.65447244
"POINT (2667046.35649283 6482184.15399183)",132400,Victoria Park,0.44829837,0.44829837,1756610.91295,5920485.1699,-36.84857807,174.75659124,2667046.35649283,6482184.15399183
"POINT (2656810.76205847 6473437.9298341)",132500,Konini,1.97176048,1.97176048,1746393.8476,5911719.44335,-36.92920297,174.64373108,2656810.76205847,6473437.9298341
"POINT (2659346.58331464 6475748.88032379)",132600,New Lynn North West,0.68978189,0.68978189,1748924.8016,5914035.1271,-36.90794042,174.67168246,2659346.58331464,6475748.88032379
"POINT (2667600.6517223 6482340.09534267)",132700,Hobson Ridge North,0.14928093,0.14928093,1757164.8458,5920642.2187,-36.84707104,174.76276914,2667600.6517223,6482340.09534267
"POINT (2666091.13779347 6480702.79802697)",132800,Grey Lynn Central,0.71192692,0.71192692,1755658.76835,5919002.01735,-36.86209925,174.74622031,2666091.13779347,6480702.79802697
"POINT (2658714.07946338 6475038.02780477)",132900,Fruitvale,0.85234856,0.85234856,1748293.7782,5913323.1048,-36.91445572,174.66474139,2658714.07946338,6475038.02780477
"POINT (2670688.56931019 6484485.64046498)",133000,Devonport,1.07894838,1.07894838,1760248.16645,5922793.8617,-36.82716648,174.79688282,2670688.56931019,6484485.64046498
"POINT (2661469.06932534 6477085.29619239)",133100,Avondale Central (Auckland),1.11535228,1.11535228,1751044.3985,5915375.6137,-36.89552468,174.69519827,2661469.06932534,6477085.29619239
"POINT (2667820.31975477 6482261.22642788)",133200,Queen Street,0.1684386,0.1684386,1757384.65525,5920563.8007,-36.84774104,174.76524972,2667820.31975477,6482261.22642788
"POINT (2668824.1253315 6482431.62524647)",133300,Quay Street-Customs Street,1.21741902,1.21741902,1758388.0355,5920736.2169,-36.84601989,174.77646293,2668824.1253315,6482431.62524647
"POINT (2667387.1098163 6481940.66613734)",133400,Hobson Ridge Central,0.0633195,0.0633195,1756952.12985,5920242.3916,-36.85070899,174.76046696,2667387.1098163,6481940.66613734
"POINT (2666614.66679418 6480723.19392029)",133500,Grey Lynn East,0.5797935,0.5797935,1756182.21045,5919023.4658,-36.86181959,174.75208551,2666614.66679418,6480723.19392029
"POINT (2664796.42381483 6479505.04456383)",133600,Morningside (Auckland),1.09355854,1.09355854,1754366.5811,5917801.7715,-36.87312613,174.73197443,2664796.42381483,6479505.04456383
"POINT (2668087.73217651 6482297.08577608)",133700,Shortland Street,0.12741288,0.12741288,1757651.97325,5920600.198,-36.84736853,174.76823915,2668087.73217651,6482297.08577608
"POINT (2667171.58640195 6481541.99423805)",133800,Hobson Ridge South,0.13699998,0.13699998,1756737.4304,5919843.31835,-36.85434043,174.75814216,2667171.58640195,6481541.99423805
"POINT (2660620.22244726 6475774.51926306)",133900,New Lynn Central,1.17480021,1.17480021,1750198.2473,5914063.29165,-36.90748467,174.68596571,2660620.22244726,6475774.51926306
"POINT (2671559.24237896 6484663.78383692)",134000,Cheltenham,0.81532065,0.81532065,1761118.4158,5922973.7659,-36.82539766,174.80659852,2671559.24237896,6484663.78383692
"POINT (2667457.43619254 6481536.97096994)",134100,Queen Street South West,0.22878127,0.22878127,1757023.26635,5919838.87255,-36.85433303,174.76134796,2667457.43619254,6481536.97096994
"POINT (2664008.82025039 6478374.93157641)",134200,Mount Albert Central,1.31350682,1.31350682,1753581.3175,5916670.1883,-36.88345034,174.72339665,2664008.82025039,6478374.93157641
"POINT (2667005.56933857 6481032.07530347)",134300,Karangahape,0.28481657,0.28481657,1756572.45675,5919333.10825,-36.85896498,174.75639764,2667005.56933857,6481032.07530347
"POINT (2666039.78669547 6479793.37443328)",134400,Kingsland,0.77242481,0.77242481,1755609.25215,5918092.5716,-36.87030191,174.74585155,2666039.78669547,6479793.37443328
"POINT (2668425.54344796 6482254.94662384)",134500,Anzac Avenue,0.10247702,0.10247702,1757989.84275,5920558.7457,-36.84768561,174.7720357,2668425.54344796,6482254.94662384
"POINT (2656033.07467021 6471515.64511862)",134600,Waima-Woodlands Park,3.48409996,3.48409996,1745620.03155,5909795.8754,-36.94665584,174.63541623,2656033.07467021,6471515.64511862
"POINT (2657888.50055875 6473386.82414261)",134700,Kaurilands,1.46132216,1.46132216,1747471.55505,5911670.4689,-36.92947622,174.65583671,2657888.50055875,6473386.82414261
"POINT (2668152.08417049 6481844.89151027)",134800,Auckland-University,0.34902817,0.34902817,1757717.23515,5920148.1708,-36.85143057,174.76906469,2668152.08417049,6481844.89151027
"POINT (2659335.98927573 6474640.04477959)",134900,New Lynn Seabrook,0.72255597,0.72255597,1748916.4028,5912926.4001,-36.91793217,174.6718063,2659335.98927573,6474640.04477959
"POINT (2661653.19074438 6476211.2863142)",135000,Avondale South (Auckland),1.17736514,1.17736514,1751230.23865,5914502.06415,-36.90336613,174.69745753,2661653.19074438,6476211.2863142
"POINT (2667865.18089282 6481456.21386785)",135100,Symonds Street North West,0.08720836,0.08720836,1757431.1408,5919758.9454,-36.85498533,174.76593774,2667865.18089282,6481456.21386785
"POINT (2663416.38985007 6477713.98494861)",135200,Mount Albert South,0.83111668,0.83111668,1752990.2661,5916008.12205,-36.88951191,174.71690055,2663416.38985007,6477713.98494861
"POINT (2667628.78999764 6481263.32254497)",135300,Symonds Street West,0.14523677,0.14523677,1757195.15875,5919565.59285,-36.8567668,174.76333185,2667628.78999764,6481263.32254497
"POINT (2658822.4844688 6473842.26548439)",135400,West Lynn,1.22670754,1.22670754,1748404.53165,5912127.6989,-36.92520977,174.66621863,2658822.4844688,6473842.26548439
"POINT (2662887.31630256 6477079.19613512)",135500,Owairaka West,0.91844127,0.91844127,1752462.5118,5915372.3409,-36.89532607,174.71110825,2662887.31630256,6477079.19613512
"POINT (2660277.92407601 6475080.26411319)",135600,New Lynn Central South,0.73948962,0.73948962,1749857.3616,5913368.43495,-36.91380003,174.68227832,2660277.92407601,6475080.26411319
"POINT (2668640.52752401 6481964.90182672)",135700,The Strand,0.16919215,0.16919215,1758205.3971,5920269.15885,-36.85025882,174.77451266,2668640.52752401,6481964.90182672
"POINT (2664719.62196381 6478543.21011984)",135800,St Lukes,0.46193499,0.46193499,1754291.7154,5916839.8734,-36.88180554,174.73133048,2664719.62196381,6478543.21011984
"POINT (2667903.03924454 6481241.80607243)",135900,Symonds Street East,0.10348319,0.10348319,1757469.42915,5919544.6316,-36.85691,174.76641149,2667903.03924454,6481241.80607243
"POINT (2667281.8752358 6480398.06351992)",136000,Eden Terrace,0.84042414,0.84042414,1756850.01785,5918699.70675,-36.86462613,174.75964083,2667281.8752358,6480398.06351992
"POINT (2668062.77957774 6480880.91952515)",136100,Grafton,0.64384001,0.64384001,1757629.8853,5919184.09655,-36.86013178,174.76828549,2668062.77957774,6480880.91952515
"POINT (2666038.6423198 6479298.08108587)",136200,Eden Park,0.50617462,0.50617462,1755609.1032,5917597.31975,-36.87476437,174.74595146,2666038.6423198,6479298.08108587
"POINT (2665485.27748941 6478669.03421369)",136300,Sandringham North,0.85722097,0.85722097,1755057.04925,5916967.2194,-36.88053268,174.73988878,2665485.27748941,6478669.03421369
"POINT (2668934.77849758 6481233.60453558)",136400,Parnell West,1.64924937,1.64924937,1758501.10425,5919538.5133,-36.85679261,174.77798053,2668934.77849758,6481233.60453558
"POINT (2660311.86002425 6474269.10611259)",136500,New Lynn South,1.43654054,1.43654054,1749892.8976,5912557.43485,-36.92110202,174.68283768,2660311.86002425,6474269.10611259
"POINT (2662999.19357366 6476293.36482189)",136600,New Windsor North,0.86782722,0.86782722,1752575.94225,5914586.81155,-36.90238578,174.71253897,2662999.19357366,6476293.36482189
"POINT (2657888.17458849 6471574.15925533)",136700,Titirangi South,4.73299752,4.73299752,1747474.79,5909858.02255,-36.94580721,174.65622649,2657888.17458849,6471574.15925533
"POINT (2663816.53835263 6477118.73226125)",136800,Owairaka East,0.4025211,0.4025211,1753391.56455,5915413.72595,-36.89480258,174.7215225,2663816.53835263,6477118.73226125
"POINT (2666630.29188959 6479309.19860488)",136900,Eden Valley,0.58402708,0.58402708,1756200.6797,5917609.62395,-36.87455582,174.75258367,2666630.29188959,6479309.19860488
"POINT (2664930.14160169 6477830.15148077)",137000,Sandringham Central,0.4723102,0.4723102,1754503.6431,5916127.30195,-36.88819147,174.73385278,2664930.14160169,6477830.15148077
"POINT (2662156.10119954 6475554.42269534)",137100,Glenavon,0.63982835,0.63982835,1751734.4009,5913846.26925,-36.90919425,174.70324553,2662156.10119954,6475554.42269534
"POINT (2661553.13204746 6474975.02228665)",137200,Blockhouse Bay North,0.92504226,0.92504226,1751132.64155,5913265.7332,-36.91452187,174.69660926,2661553.13204746,6474975.02228665
"POINT (2660516.8386641 6473689.99348558)",137300,Green Bay North,1.03578148,1.03578148,1750098.9972,5911978.7916,-36.92628317,174.68526542,2660516.8386641,6473689.99348558
"POINT (2669786.49234084 6481280.37378448)",137400,Parnell East,1.22491492,1.22491492,1759352.6607,5919586.9992,-36.85621249,174.78751844,2669786.49234084,6481280.37378448
"POINT (2655581.53401518 6469535.89319259)",137500,Laingholm,4.07829951,4.07829951,1745172.41515,5907815.4952,-36.96456984,174.63077158,2655581.53401518,6469535.89319259
"POINT (2664647.36362558 6477358.42721949)",137600,Sandringham West,0.4767622,0.4767622,1754221.83375,5915655.0563,-36.89249272,174.73078769,2664647.36362558,6477358.42721949
"POINT (2667798.4448763 6479887.46430788)",137700,Mount Eden North East,0.46591267,0.46591267,1757367.57395,5918190.18915,-36.86913097,174.76555025,2667798.4448763,6479887.46430788
"POINT (2667378.04195976 6479262.96845172)",137800,Mount Eden North,0.87610629,0.87610629,1756948.46085,5917564.8992,-36.8748348,174.76097949,2667378.04195976,6479262.96845172
"POINT (2664247.90272282 6476671.14881223)",137900,Wesley West,0.75674571,0.75674571,1753823.7811,5914967.0452,-36.89875702,174.72646197,2664247.90272282,6476671.14881223
"POINT (2659795.03658633 6472904.78654329)",138000,Green Bay South,1.25786551,1.25786551,1749378.8209,5911192.2471,-36.93348489,174.67733798,2659795.03658633,6472904.78654329
"POINT (2665923.03947332 6477916.66845443)",138100,Balmoral,0.78483197,0.78483197,1755496.28005,5916215.79685,-36.88723106,174.7449694,2665923.03947332,6477916.66845443
"POINT (2665311.23744546 6477272.21610052)",138200,Sandringham East,0.71518377,0.71518377,1754885.82015,5915570.17855,-36.89314875,174.73825366,2665311.23744546,6477272.21610052
"POINT (2663327.09603854 6475605.7086655)",138300,New Windsor South,1.11580579,1.11580579,1752905.1787,5913899.876,-36.90852211,174.71637156,2663327.09603854,6475605.7086655
"POINT (2666697.60224751 6478279.44195853)",138400,Mount Eden West,0.79122761,0.79122761,1756270.05075,5916580.0897,-36.88382084,174.75357383,2666697.60224751,6478279.44195853
"POINT (2668826.08597974 6479932.04618469)",138500,Newmarket,1.07489367,1.07489367,1758395.046,5918236.8355,-36.86853889,174.77706299,2668826.08597974,6479932.04618469
"POINT (2662586.0847433 6474919.5092317)",138600,Blockhouse Bay North East,0.52948071,0.52948071,1752165.5998,5913212.27415,-36.91483741,174.70821128,2662586.0847433,6474919.5092317
"POINT (2668240.54226822 6479009.56883657)",138700,Epsom North,1.0762293,1.0762293,1757811.40255,5917313.2519,-36.87695838,174.77070996,2668240.54226822,6479009.56883657
"POINT (2664636.04304561 6475491.96805068)",138800,Wesley South,0.68276864,0.68276864,1754214.23025,5913788.74765,-36.90931026,174.73108232,2664636.04304561,6475491.96805068
"POINT (2661688.23322161 6473774.69859694)",138900,Blockhouse Bay South,1.67086642,1.67086642,1751270.1019,5912065.80335,-36.92531189,174.6983916,2661688.23322161,6473774.69859694
"POINT (2667310.53430371 6478135.79506957)",139000,Mount Eden East,0.76425141,0.76425141,1756883.22085,5916437.6824,-36.88500226,174.760481,2667310.53430371,6478135.79506957
"POINT (2664914.24080479 6476157.28531154)",139100,Wesley East,0.60703951,0.60703951,1754491.08115,5914454.55725,-36.90326571,174.73405291,2664914.24080479,6476157.28531154
"POINT (2672257.57418491 6481132.12397894)",139200,Orakei West,1.35364764,1.45144851,1761823.87925,5919443.75415,-36.85708312,174.81525702,2672257.57418491,6481132.12397894
"POINT (2666742.30362486 6477490.90877653)",139300,Maungawhau,0.73452195,0.73452195,1756316.32755,5915791.7119,-36.89091675,174.75425547,2666742.30362486,6477490.90877653
"POINT (2669612.74826781 6479743.89849522)",139400,Remuera West,0.87955693,0.87955693,1759182.03,5918050.28535,-36.87008743,174.78592756,2669612.74826781,6479743.89849522
"POINT (2662673.12517558 6474226.87820082)",139500,Blockhouse Bay East,0.77910259,0.77910259,1752254.0024,5912519.8854,-36.92106193,174.70934256,2662673.12517558,6474226.87820082
"POINT (2663414.84575052 6474382.37311468)",139600,Lynfield North,0.94159197,0.94159197,1752995.34435,5912676.83405,-36.91952771,174.71763043,2663414.84575052,6474382.37311468
"POINT (2665825.7181686 6476441.47060209)",139700,Mount Roskill North,0.95837557,0.95837557,1755401.9139,5914740.53295,-36.90053933,174.7442134,2665825.7181686,6476441.47060209
"POINT (2664169.59216346 6474887.04579168)",139800,Mount Roskill White Swan,1.04194196,1.04194196,1753749.0215,5913182.95525,-36.91484469,174.72598544,2664169.59216346,6474887.04579168
"POINT (2666751.89184322 6476945.90091194)",139900,Mount Eden South,0.87283197,0.87283197,1756327.00455,5915246.76825,-36.89582511,174.75448765,2666751.89184322,6476945.90091194
"POINT (2670350.11519117 6479574.97346987)",140000,Remuera Waitaramoa,1.69215353,1.69215353,1759919.68625,5917882.8565,-36.87147136,174.79423523,2670350.11519117,6479574.97346987
"POINT (2672980.32050009 6481496.58665451)",140100,Orakei East,1.70739051,1.70739051,1762545.845,5919809.6575,-36.85366237,174.82327361,2672980.32050009,6481496.58665451
"POINT (2668145.97705337 6477809.22659078)",140200,Epsom Central-North,1.10588807,1.10588807,1757719.25315,5916112.81285,-36.88779009,174.76992615,2668145.97705337,6477809.22659078
"POINT (2669088.24146232 6478391.63094134)",140300,Mount St John,1.24254315,1.24254315,1758660.28005,5916697.0621,-36.88236812,174.78035947,2669088.24146232,6478391.63094134
"POINT (2665700.00225823 6475526.66686341)",140400,Mount Roskill Central North,0.89983995,0.89983995,1755278.02805,5913825.5591,-36.908804,174.74301108,2665700.00225823,6475526.66686341
"POINT (2671228.06581978 6479888.60192669)",140500,Remuera North,1.39680508,1.39680508,1760796.9473,5918198.23235,-36.8684808,174.8040065,2671228.06581978,6479888.60192669
"POINT (2666543.1140321 6476145.17906168)",140600,Three Kings West,0.6471001,0.6471001,1756119.84005,5914445.6969,-36.90307735,174.75232867,2666543.1140321,6476145.17906168
"POINT (2665265.30551615 6474754.55448015)",140700,Mount Roskill Central South,1.20295544,1.20295544,1754844.90065,5913052.65085,-36.91583944,174.73830929,2665265.30551615,6474754.55448015
"POINT (2667942.66289728 6476817.90832398)",140800,Epsom Central-South,0.98346492,0.98346492,1757517.9383,5915121.1642,-36.89675875,174.76787408,2667942.66289728,6476817.90832398
"POINT (2663613.95526362 6473200.35519738)",140900,Lynfield South,1.57565769,1.57565769,1753196.7713,5911495.32335,-36.93014096,174.72013007,2663613.95526362,6473200.35519738
"POINT (2670411.97869099 6478134.73743843)",141000,Remuera South,1.42912557,1.42912557,1759984.4424,5916442.8424,-36.88443518,174.79526521,2670411.97869099,6478134.73743843
"POINT (2673786.62443297 6481247.1312145)",141100,Mission Bay,1.54574692,1.54574692,1763352.61,5919561.84875,-36.855756,174.83237219,2673786.62443297,6481247.1312145
"POINT (2667081.50534047 6475999.46122162)",141200,Three Kings East,0.67406907,0.67406907,1756658.4785,5914301.06405,-36.90429123,174.75840181,2667081.50534047,6475999.46122162
"POINT (2664513.3879888 6473809.15787458)",141300,Mount Roskill South,1.12961152,1.12961152,1754094.9204,5912105.8486,-36.92449342,174.73008619,2664513.3879888,6473809.15787458
"POINT (2663237.19341768 6460660.79909183)",141400,Inlet Manukau Harbour,0,374.64232155,1752844.4149,5898956.14835,-37.04318103,174.718716,2663237.19341768,6460660.79909183
"POINT (2668871.39410727 6476961.82353774)",141500,Epsom East,1.26821039,1.26821039,1758446.3137,5915266.9247,-36.89528995,174.7782585,2668871.39410727,6476961.82353774
"POINT (2671240.40155829 6478893.54267962)",141600,Remuera Waiata,0.94346871,0.94346871,1760811.28705,5917203.26205,-36.87744319,174.80437822,2671240.40155829,6478893.54267962
"POINT (2667778.03813741 6475973.55093655)",141700,Epsom South,0.59629985,0.59629985,1757355.0094,5914276.5442,-36.90439621,174.7662217,2667778.03813741,6475973.55093655
"POINT (2674544.17487934 6481011.91247107)",141800,Kohimarama,1.51293355,1.51293355,1764110.59825,5919328.17625,-36.85773003,174.84092129,2674544.17487934,6481011.91247107
"POINT (2673163.51149228 6479727.90832566)",141900,Meadowbank West,1.04159595,1.04159595,1762732.60325,5918041.4508,-36.86956185,174.8257466,2673163.51149228,6479727.90832566
"POINT (2667038.43362136 6474968.01440971)",142000,Hillsborough North (Auckland),1.29279528,1.29279528,1756617.46055,5913269.61515,-36.91359172,174.75815493,2667038.43362136,6474968.01440971
"POINT (2666059.25000187 6474289.31965514)",142100,Hillsborough West (Auckland),0.84158981,0.84158981,1755639.70085,5912589.0319,-36.91988593,174.74732339,2666059.25000187,6474289.31965514
"POINT (2670189.79015513 6477346.66508806)",142200,Greenlane North,1.14324419,1.14324419,1759763.8492,5915654.3774,-36.89157675,174.7929571,2670189.79015513,6477346.66508806
"POINT (2665392.307524 6473638.57353823)",142300,Waikowhai North,0.69810774,0.69810774,1754974.10155,5911937.0197,-36.92587047,174.73998756,2665392.307524,6473638.57353823
"POINT (2672764.52056709 6479015.08899717)",142400,Remuera East,0.88580134,0.88580134,1762335.07175,5917327.8677,-36.8760597,174.82144132,2672764.52056709,6479015.08899717
"POINT (2665999.86466144 6473170.25289441)",142500,Waikowhai South,1.35684679,1.35684679,1755582.5345,5911469.9415,-36.92997876,174.74691198,2665999.86466144,6473170.25289441
"POINT (2668040.8705849 6475336.28835166)",142600,Royal Oak West (Auckland),0.81143579,0.81143579,1757619.09025,5913639.85445,-36.91008886,174.76931709,2668040.8705849,6475336.28835166
"POINT (2675418.39008175 6481060.88162714)",142700,Saint Heliers West,1.18574088,1.18574088,1764984.6729,5919378.91325,-36.85712066,174.85071062,2675418.39008175,6481060.88162714
"POINT (2669208.90253411 6476293.78848832)",142800,One Tree Hill,2.74928149,2.74928149,1758785.1328,5914599.61225,-36.90124562,174.78219928,2669208.90253411,6476293.78848832
"POINT (2666877.64771934 6474273.40616849)",142900,Hillsborough East (Auckland),0.62787049,0.62787049,1756458.06505,5912574.7436,-36.91987919,174.75650998,2666877.64771934,6474273.40616849
"POINT (2676430.81584843 6481570.08900805)",143000,Saint Heliers North,1.33837279,1.33837279,1765996.02145,5919890.1504,-36.85233733,174.86193821,2676430.81584843,6481570.08900805
"POINT (2672001.71893237 6478052.29794308)",143100,Remuera Abbotts Park,1.02250692,1.02250692,1761574.2505,5916363.599,-36.88487835,174.81311405,2672001.71893237,6478052.29794308
"POINT (2674166.75713373 6479681.86109343)",143200,Meadowbank East,0.65235233,0.65235233,1763735.8899,5917997.43005,-36.86978506,174.83700703,2674166.75713373,6479681.86109343
"POINT (2671485.40005305 6477271.88223394)",143300,Ellerslie Central,1.49407522,1.49407522,1761059.52825,5915582.19455,-36.89200686,174.80750671,2671485.40005305,6477271.88223394
"POINT (2668684.7239368 6475137.45315663)",143400,Royal Oak East (Auckland),0.64096806,0.64096806,1758263.2929,5913442.31585,-36.91176082,174.77658657,2668684.7239368,6475137.45315663
"POINT (2675903.14024678 6480292.32673138)",143500,Saint Heliers South,1.22213447,1.22213447,1765470.95905,5918611.37455,-36.86395106,174.85633024,2675903.14024678,6480292.32673138
"POINT (2666781.26787736 6473582.72738874)",143600,Hillsborough South (Auckland),1.15992616,1.15992616,1756363.06055,5911883.92925,-36.92611941,174.75558659,2666781.26787736,6473582.72738874
"POINT (2673839.25107739 6478326.01072891)",143700,Saint Johns West,1.04254909,1.04254909,1763411.13375,5916640.9893,-36.88206283,174.83365741,2673839.25107739,6478326.01072891
"POINT (2670689.40231598 6476307.92889617)",143800,Greenlane South,0.85269356,0.85269356,1760265.50775,5914616.7089,-36.90084121,174.79880394,2670689.40231598,6476307.92889617
"POINT (2673283.99218445 6478249.94263)",143900,Remuera Waiatarua,1.57029302,1.57029302,1762856.05605,5916563.80865,-36.88285416,174.82744827,2673283.99218445,6478249.94263
"POINT (2677473.1117244 6481207.10654291)",144000,Glendowie North,2.04093198,2.04093198,1767039.01445,5919529.2974,-36.85540475,174.87371093,2677473.1117244,6481207.10654291
"POINT (2668455.52526219 6474265.88528648)",144100,Onehunga West,1.12216103,1.12216103,1758035.84105,5912570.3561,-36.91965553,174.77421645,2668455.52526219,6474265.88528648
"POINT (2671346.05986393 6476501.77890971)",144200,Ellerslie West,0.39993535,0.39993535,1760921.73865,5914811.8593,-36.89897117,174.80612464,2671346.05986393,6476501.77890971
"POINT (2669587.89774244 6475062.27256446)",144300,Onehunga North,0.77236244,0.77236244,1759166.555,5913368.9388,-36.91226992,174.78673711,2669587.89774244,6475062.27256446
"POINT (2672691.84324665 6477212.97200084)",144400,Ellerslie East,0.75498159,0.75498159,1762266.0217,5915525.7058,-36.89230912,174.8210526,2672691.84324665,6477212.97200084
"POINT (2674962.78709074 6479034.18086337)",144500,Saint Johns East,0.60554145,0.60554145,1764533.18965,5917351.38695,-36.87546729,174.84608811,2674962.78709074,6479034.18086337
"POINT (2688874.4158438 6488470.58779605)",144600,Oneroa West,8.42001024,8.42001024,1778425.17915,5926816.0829,-36.78767524,174.99965402,2688874.4158438,6488470.58779605
"POINT (2675933.76755794 6479269.38128974)",144700,Glen Innes West,1.36746205,1.36746205,1765503.6538,5917588.53525,-36.873161,174.85691995,2675933.76755794,6479269.38128974
"POINT (2672182.12088852 6476289.87998591)",144800,Ellerslie South,0.82740695,0.82740695,1761758.17545,5914601.64515,-36.90072215,174.8155531,2672182.12088852,6476289.87998591
"POINT (2674146.54624391 6477795.853793)",144900,Stonefields West,0.54220765,0.54220765,1763719.48065,5916111.4767,-36.88678029,174.83723014,2674146.54624391,6477795.853793
"POINT (2669602.69687593 6474232.60838122)",145000,Onehunga Central,0.86447109,0.86447109,1759183.00145,5912539.36075,-36.91974178,174.78709609,2669602.69687593,6474232.60838122
"POINT (2676873.82950832 6480192.6746291)",145100,Glendowie South,2.01342959,2.01342959,1766441.81165,5918513.69035,-36.8646606,174.8672379,2676873.82950832,6480192.6746291
"POINT (2670797.22760244 6475058.20911962)",145200,Oranga,0.66853336,0.66853336,1760375.8171,5913367.28445,-36.91207992,174.80030606,2670797.22760244,6475058.20911962
"POINT (2673424.73141254 6477022.79076354)",145300,Mount Wellington North West,0.92460656,0.92460656,1762999.2536,5915337.00395,-36.89388294,174.82931818,2673424.73141254,6477022.79076354
"POINT (2675359.92872262 6478116.90252497)",145400,Panmure Glen Innes Industrial,2.01305756,2.01305756,1764932.16295,5916434.95005,-36.88365468,174.85076184,2675359.92872262,6478116.90252497
"POINT (2670282.51525198 6473516.19575809)",145500,Onehunga-Te Papapa Industrial,2.94146082,2.94146082,1759864.19825,5911824.34565,-36.92606886,174.79489131,2670282.51525198,6473516.19575809
"POINT (2670442.07235676 6474337.6086404)",145600,Te Papapa,0.71125763,0.71125763,1760022.11585,5912646.0229,-36.91863866,174.79648981,2670442.07235676,6474337.6086404
"POINT (2674619.11420977 6477554.3761899)",145700,Stonefields East,0.44566631,0.44566631,1764192.5124,5915870.95995,-36.88886515,174.84258802,2674619.11420977,6477554.3761899
"POINT (2677205.75744809 6479192.97723056)",145800,Glen Innes East-Wai O Taiki Bay,1.39731695,1.39731695,1766775.75025,5917514.70185,-36.87360239,174.87120197,2677205.75744809,6479192.97723056
"POINT (2672763.93401182 6474138.02755274)",145900,Penrose,6.42109891,6.42109891,1762344.24605,5912451.07325,-36.91999811,174.82258914,2672763.93401182,6474138.02755274
"POINT (2674639.15610831 6476983.46099988)",146000,Mount Wellington North East,0.72698014,0.72698014,1764213.70035,5915300.1115,-36.89400476,174.84294936,2674639.15610831,6476983.46099988
"POINT (2667904.98044893 6471152.68336193)",146100,Mangere Bridge Ambury,3.14003429,3.14003429,1757491.4864,5909456.29165,-36.94780505,174.76875626,2667904.98044893,6471152.68336193
"POINT (2673624.66693365 6476104.13041433)",146200,Mount Wellington Ferndale,0.85764389,0.85764389,1763201.01875,5914418.79135,-36.90212113,174.83177929,2673624.66693365,6476104.13041433
"POINT (2676657.75464951 6478065.31272284)",146300,Point England,1.49144741,1.49144741,1766230.0424,5916385.97445,-36.88386826,174.86532955,2676657.75464951,6478065.31272284
"POINT (2680142.05094471 6480562.65023487)",146400,Bucklands Beach North,1.38358083,1.38358083,1769709.1827,5918890.27675,-36.86068628,174.9037907,2680142.05094471,6480562.65023487
"POINT (2674255.7786735 6476161.11029304)",146500,Mount Wellington East,0.59950667,0.59950667,1763831.9875,5914477.0313,-36.90148701,174.83884542,2674255.7786735,6476161.11029304
"POINT (2673240.92495718 6475108.08279554)",146600,Mount Wellington West,0.77910143,0.77910143,1762819.28285,5913422.0283,-36.91116791,174.82771093,2673240.92495718,6475108.08279554
"POINT (2674785.91327969 6476353.12072121)",146700,Panmure West,0.64310957,0.64310957,1764361.71495,5914670.09415,-36.89965538,174.84474639,2674785.91327969,6476353.12072121
"POINT (2669676.49381696 6471586.22795338)",146800,Mangere Bridge,1.61801696,1.61801696,1759262.02975,5909893.30195,-36.94356976,174.78854005,2669676.49381696,6471586.22795338
"POINT (2693583.96903795 6489293.39634065)",146900,Oneroa East-Palm Beach,3.67314986,3.67314986,1783133.07555,5927648.71675,-36.77927556,175.05218612,2693583.96903795,6489293.39634065
"POINT (2676322.73892385 6476812.96698686)",147000,Tamaki,1.29535319,1.29535319,1765897.5583,5915133.0028,-36.89521581,174.86187464,2676322.73892385,6476812.96698686
"POINT (2676170.67794999 6476031.55700089)",147100,Panmure East,1.01366203,1.01366203,1765747.06895,5914351.31815,-36.9022851,174.86035751,2676170.67794999,6476031.55700089
"POINT (2674753.03551502 6475390.26563219)",147200,Mount Wellington Central,1.20738713,1.20738713,1764330.7627,5913707.21735,-36.90833619,174.84460805,2674753.03551502,6475390.26563219
"POINT (2704013.36880677 6486949.86809831)",147300,Bays Waiheke Island,0,35.91134403,1793567.9062,5925326.874,-36.79811715,175.16963457,2704013.36880677,6486949.86809831
"POINT (2674370.75773048 6474675.14577864)",147400,Sylvia Park,0.55720563,0.55720563,1763949.927,5912991.36675,-36.91485222,174.84049019,2674370.75773048,6474675.14577864
"POINT (2669417.25288056 6470598.62031464)",147500,Mangere Mountain View,1.69738429,1.69738429,1759004.75025,5908905.2469,-36.95251573,174.7858599,2669417.25288056,6470598.62031464
"POINT (2691547.03692182 6487469.6831125)",147600,Surfdale,2.61127994,2.61127994,1781099.90545,5925820.71925,-36.79613493,175.02985004,2691547.03692182,6487469.6831125
"POINT (2675349.1293055 6474031.72597353)",147700,Mount Wellington Industrial,3.33330808,3.33330808,1764929.54075,5912349.92575,-36.92046064,174.85162182,2675349.1293055,6474031.72597353
"POINT (2679443.91760421 6477765.51343585)",147800,Half Moon Bay West,1.13580706,1.28096434,1769016.7289,5916091.79655,-36.88602382,174.89665015,2679443.91760421,6477765.51343585
"POINT (2668278.38806741 6466561.04616297)",147900,Auckland Airport,23.07816449,23.07816449,1757873.85785,5904865.70405,-36.9891029,174.77400859,2668278.38806741,6466561.04616297
"POINT (2680967.48868557 6478762.03810231)",148000,Eastern Beach,1.18089038,1.18089038,1770538.24925,5917091.3772,-36.87674433,174.91349074,2680967.48868557,6478762.03810231
"POINT (2677254.94764984 6475317.26524853)",148100,Sunnyhills West-Pakuranga North,1.62660244,1.62660244,1766832.73165,5913639.2234,-36.9085095,174.87269402,2677254.94764984,6475317.26524853
"POINT (2671481.55980376 6470923.52137526)",148200,Favona North,1.10911439,1.10911439,1761068.3001,5909234.1995,-36.94920111,174.80895608,2671481.55980376,6470923.52137526
"POINT (2680439.45411025 6478410.81589361)",148300,Bucklands Beach Central,0.57859096,0.57859096,1770010.9377,5916739.094,-36.88001336,174.9076561,2680439.45411025,6478410.81589361
"POINT (2678276.50344572 6476742.91791881)",148400,Farm Cove,0.97579917,0.97579917,1767851.4027,5915066.8794,-36.89546599,174.88380665,2678276.50344572,6476742.91791881
"POINT (2670218.90765682 6469836.9642516)",148500,Mangere North,0.71610265,0.71610265,1759807.8549,5908145.21675,-36.95922768,174.7950367,2670218.90765682,6469836.9642516
"POINT (2670678.39421915 6470193.6090628)",148600,Favona West,0.85944157,0.85944157,1760266.6147,5908502.745,-36.95592834,174.80011155,2670678.39421915,6470193.6090628
"POINT (2693550.71727968 6487810.8780347)",148700,Ostend,3.91381801,3.91381801,1783102.91625,5926166.0891,-36.79263832,175.05220466,2693550.71727968,6487810.8780347
"POINT (2680182.24989012 6477701.37965707)",148800,Half Moon Bay North East,0.64603014,0.64603014,1769755.1726,5916029.1532,-36.88645568,174.90494659,2680182.24989012,6477701.37965707
"POINT (2669756.96774407 6469134.38524772)",148900,Mangere West,0.94253489,0.94253489,1759347.32045,5907441.77255,-36.96564384,174.79001448,2669756.96774407,6469134.38524772
"POINT (2676887.20215916 6474250.66515003)",149000,Pakuranga West,1.39204826,1.39204826,1766467.12585,5912571.92425,-36.91819021,174.86882676,2676887.20215916,6474250.66515003
"POINT (2674819.86514769 6472858.65466764)",149100,Mount Wellington South West,0.69676276,0.69676276,1764402.6277,5911175.84985,-36.93113094,174.8459642,2674819.86514769,6472858.65466764
"POINT (2678939.42748634 6476072.02065561)",149200,Sunnyhills East,0.87367206,0.87367206,1768515.6572,5914397.3318,-36.90137998,174.89140685,2678939.42748634,6476072.02065561
"POINT (2679946.42515241 6476795.23438975)",149300,Half Moon Bay South East,0.83429938,0.83429938,1769521.18,5915122.55175,-36.89466587,174.90252487,2679946.42515241,6476795.23438975
"POINT (2671637.19888624 6470178.08421038)",149400,Favona East,0.63568423,0.63568423,1761225.39925,5908489.11005,-36.95588747,174.81087863,2671637.19888624,6470178.08421038
"POINT (2675674.04346353 6473299.87966933)",149500,Mount Wellington South East,0.67318677,0.67318677,1765255.89865,5911618.7556,-36.92699118,174.85544369,2675674.04346353,6473299.87966933
"POINT (2673173.70254293 6470780.30637676)",149600,Otahuhu Industrial,1.84535251,1.84535251,1762760.6441,5909094.33325,-36.9501703,174.82798415,2673173.70254293,6470780.30637676
"POINT (2680908.47907502 6477313.26373734)",149700,Bucklands Beach South,1.12045176,1.12045176,1770482.16755,5915642.5097,-36.88980813,174.91318756,2680908.47907502,6477313.26373734
"POINT (2677695.93512242 6474620.00392501)",149800,Pakuranga Central,1.12595262,1.12595262,1767275.09925,5912942.86625,-36.91470511,174.87781101,2677695.93512242,6474620.00392501
"POINT (2655313.74757863 6448970.44301538)",149900,Awhitu,221.55844737,221.55844737,1744943.7228,5887251.9874,-37.14989636,174.63216856,2655313.74757863,6448970.44301538
"POINT (2671568.06297825 6469533.31470291)",150000,Harania North,0.94437248,0.94437248,1761157.53455,5907844.23905,-36.96170937,174.8102543,2671568.06297825,6469533.31470291
"POINT (2673911.4169932 6471698.6863845)",150100,Otahuhu Central,1.26371643,1.26371643,1763496.5134,5910014.13,-36.94175556,174.83604598,2673911.4169932,6471698.6863845
"POINT (2670528.62428005 6468522.30411913)",150200,Mangere Central,1.44492264,1.44492264,1760120.1332,5906831.2424,-36.97101355,174.79882139,2670528.62428005,6468522.30411913
"POINT (2674914.77057635 6472062.51226184)",150300,Otahuhu North,0.72481482,0.72481482,1764499.10765,5910379.9288,-36.93828521,174.84722011,2674914.77057635,6472062.51226184
"POINT (2681488.97833028 6476923.5312285)",150400,Howick West,1.19261311,1.19261311,1771063.44095,5915253.9537,-36.89320364,174.91979511,2681488.97833028,6476923.5312285
"POINT (2678666.0579403 6474943.37150815)",150500,Pakuranga Heights North West,0.76233989,0.76233989,1768244.5525,5913268.16465,-36.91160179,174.88861633,2678666.0579403,6474943.37150815
"POINT (2682449.14328476 6477573.12351232)",150600,Mellons Bay,1.67597292,1.67597292,1772022.27955,5915905.4754,-36.88715946,174.93040248,2682449.14328476,6477573.12351232
"POINT (2679601.71901172 6475253.05701906)",150700,Pakuranga Heights East,1.79066061,1.79066061,1769179.57515,5913579.7162,-36.90862754,174.89903753,2679601.71901172,6475253.05701906
"POINT (2672625.79976112 6469842.16459451)",150800,Sutton Park,0.73066561,0.73066561,1762214.6137,5908155.15575,-36.95872645,174.82205607,2672625.79976112,6469842.16459451
"POINT (2676303.86537784 6472650.11766352)",150900,Otahuhu East,0.78748523,0.78748523,1765886.9903,5910970.26995,-36.93272301,174.8626682,2676303.86537784,6472650.11766352
"POINT (2670183.44855111 6467669.77961804)",151000,Mangere South,0.83312102,0.83312102,1759776.64405,5905978.0907,-36.97875887,174.79514489,2670183.44855111,6467669.77961804
"POINT (2695879.3923365 6487399.91970603)",151100,Onetangi,5.96163345,5.96163345,1785432.5183,5925759.9661,-36.79584373,175.07839806,2695879.3923365,6487399.91970603
"POINT (2671944.41456253 6468882.55774129)",151200,Harania South,0.77647517,0.77647517,1761535.1454,5907194.25615,-36.96750095,174.81463304,2671944.41456253,6468882.55774129
"POINT (2680531.88372703 6475665.12848242)",151300,Highland Park (Auckland),1.37635731,1.37635731,1770108.894,5913993.6458,-36.90473104,174.90937089,2680531.88372703,6475665.12848242
"POINT (2674243.86038952 6470535.93964212)",151400,Otahuhu South West,1.24162382,1.24162382,1763831.2399,5908852.09135,-36.95216719,174.84005503,2674243.86038952,6470535.93964212
"POINT (2678483.15517765 6474031.42330213)",151500,Pakuranga Heights South West,0.97371434,0.97371434,1768063.47415,5912355.8749,-36.9198535,174.88678719,2678483.15517765,6474031.42330213
"POINT (2671469.90732017 6468250.46425439)",151600,Mangere Mascot,0.78432156,0.78432156,1761061.90005,5906561.26395,-36.97328531,174.80945421,2671469.90732017,6468250.46425439
"POINT (2700296.45805723 6487056.34430506)",151700,Waiheke East,87.58062844,87.58062844,1789850.515,5925425.58635,-36.79798055,175.12796937,2700296.45805723,6487056.34430506
"POINT (2672823.31446776 6469105.19325234)",151800,Massey Road West,0.6935197,0.6935197,1762413.56815,5907418.6087,-36.96532836,174.82444816,2672823.31446776,6469105.19325234
"POINT (2675138.22662219 6471068.87505383)",151900,Otahuhu South,0.81751878,0.81751878,1764724.5213,5909386.77355,-36.94719396,174.84996655,2675138.22662219,6471068.87505383
"POINT (2681820.78048492 6476248.07323991)",152000,Howick Central,0.8576312,0.8576312,1771396.5974,5914579.1729,-36.89922262,174.92368474,2681820.78048492,6476248.07323991
"POINT (2673552.55439462 6469237.03519924)",152100,Massey Road North,0.85966762,0.85966762,1763142.51845,5907551.87955,-36.96400152,174.83260412,2673552.55439462,6469237.03519924
"POINT (2680945.50967732 6475121.27444506)",152200,Botany Downs West,0.81388434,0.81388434,1770523.60115,5913450.6314,-36.90954846,174.91414564,2680945.50967732,6475121.27444506
"POINT (2678469.15452333 6471991.67906754)",152300,East Tamaki,7.77487822,7.77487822,1768053.53095,5910316.1539,-36.93823242,174.88712871,2678469.15452333,6471991.67906754
"POINT (2682413.96741337 6476050.23626991)",152400,Howick East,1.10919825,1.10919825,1771990.17315,5914382.5321,-36.90088621,174.930388,2682413.96741337,6476050.23626991
"POINT (2679425.72297428 6473719.18946852)",152500,Burswood,0.52549252,0.52549252,1769006.64575,5912045.5303,-36.92248095,174.89743987,2679425.72297428,6473719.18946852
"POINT (2672613.71971889 6468385.2610242)",152600,Massey Road South,0.32471635,0.32471635,1762205.39515,5906698.29855,-36.97185419,174.8222655,2672613.71971889,6468385.2610242
"POINT (2674492.48159009 6469611.82435867)",152700,Middlemore,0.72022213,0.72022213,1764081.67255,5907928.5046,-36.96044494,174.84306701,2674492.48159009,6469611.82435867
"POINT (2673038.86267063 6466699.63972554)",152800,Mangere South East,4.33120515,4.33120515,1762633.81815,5905013.587,-36.98695925,174.82743938,2673038.86267063,6466699.63972554
"POINT (2681624.06845027 6475051.84098782)",152900,Botany Downs East,0.67735204,0.67735204,1771202.28745,5913382.56055,-36.91003877,174.92177547,2681624.06845027,6475051.84098782
"POINT (2675049.95506478 6469230.78052766)",153000,Grange,1.43178144,1.43178144,1764639.87645,5907548.57395,-36.96377055,174.84941695,2675049.95506478,6469230.78052766
"POINT (2680352.08024342 6473814.05302378)",153100,Golflands,1.40769231,1.40769231,1769932.7954,5912142.243,-36.92144309,174.90781082,2680352.08024342,6473814.05302378
"POINT (2673003.25486669 6468184.22919811)",153200,Aorere North,0.33000405,0.33000405,1762595.30765,5906498.04075,-36.97359119,174.82668701,2673003.25486669,6468184.22919811
"POINT (2674124.7783048 6468636.67318714)",153300,Mangere East,0.86872274,0.86872274,1763715.8996,5906952.66865,-36.96930074,174.8391719,2674124.7783048,6468636.67318714
"POINT (2683570.91342057 6476383.00371665)",153400,Cockle Bay,1.72842716,1.72842716,1773146.43825,5914717.62735,-36.89765568,174.94328238,2683570.91342057,6476383.00371665
"POINT (2676487.06431906 6470072.41786403)",153500,Otara West,1.55637466,1.55637466,1766075.28445,5908393.0181,-36.95591017,174.86534764,2676487.06431906,6470072.41786403
"POINT (2673320.44863969 6467822.02933397)",153600,Aorere Central,0.62009558,0.62009558,1762913.19805,5906136.4794,-36.97679381,174.83033475,2673320.44863969,6467822.02933397
"POINT (2681669.02863709 6474250.4378277)",153700,Northpark North,0.86166842,0.86166842,1771248.85035,5912581.257,-36.91724964,174.92247912,2681669.02863709,6474250.4378277
"POINT (2682702.23383391 6474772.17062434)",153800,Somerville,1.556066,1.556066,1772280.99955,5913105.0565,-36.91234246,174.93394109,2682702.23383391,6474772.17062434
"POINT (2681115.03176356 6473657.46481974)",153900,Northpark South,0.70661609,0.70661609,1770696.04585,5911987.18255,-36.9227022,174.91641035,2681115.03176356,6473657.46481974
"POINT (2675028.00394762 6468436.42789379)",154000,Papatoetoe North,0.99327077,0.99327077,1764619.4871,5906754.20705,-36.97093119,174.8493612,2675028.00394762,6468436.42789379
"POINT (2676055.1535797 6469253.35790902)",154100,Dingwall,0.8271738,0.8271738,1765644.9997,5907573.13155,-36.96337293,174.86069682,2676055.1535797,6469253.35790902
"POINT (2673952.58992513 6467296.36975129)",154200,Aorere South,1.23946499,1.23946499,1763546.3443,5905612.0811,-36.98140868,174.83755849,2673952.58992513,6467296.36975129
"POINT (2683826.78372448 6475194.84156958)",154300,Shelly Park,1.23160322,1.23160322,1773404.6941,5913529.98415,-36.90830816,174.94645122,2683826.78372448,6475194.84156958
"POINT (2677504.92685793 6470047.70769566)",154400,Otara Central,1.52354042,1.52354042,1767093.17055,5908370.32015,-36.95593456,174.87677994,2677504.92685793,6470047.70769566
"POINT (2680248.686027 6472436.81446196)",154500,Huntington Park,0.43629701,0.43629701,1769832.1461,5910764.82095,-36.93387117,174.90699061,2680248.686027,6472436.81446196
"POINT (2680722.53398953 6472726.30790589)",154600,Botany Central,0.46967107,0.46967107,1770305.40995,5911055.2546,-36.93116908,174.91223666,2680722.53398953,6472726.30790589
"POINT (2681974.2488361 6473380.75253959)",154700,Botany North,0.92492593,0.92492593,1771555.8035,5911712.19115,-36.92502363,174.92612028,2681974.2488361,6473380.75253959
"POINT (2674752.10269274 6467426.6979446)",154800,Papatoetoe West,1.22430286,1.22430286,1764345.5745,5905743.9718,-36.98008106,174.84650545,2674752.10269274,6467426.6979446
"POINT (2675788.85012541 6468010.94826606)",154900,Papatoetoe Central,1.45738387,1.45738387,1765381.14525,5906330.23765,-36.97461746,174.85800659,2675788.85012541,6468010.94826606
"POINT (2688469.84512214 6477940.13846342)",155000,Sunkist Bay,1.52795082,1.52795082,1778042.2355,5916284.6801,-36.88262674,174.99783159,2688469.84512214,6477940.13846342
"POINT (2678350.58425432 6470139.47993676)",155100,Otara East,0.86784541,0.86784541,1767938.6296,5908463.76245,-36.95494224,174.88625064,2678350.58425432,6470139.47993676
"POINT (2680072.95285229 6471411.94293199)",155200,Redcastle,0.55559047,0.55559047,1769658.45115,5909739.61585,-36.94313907,174.90527124,2680072.95285229,6471411.94293199
"POINT (2681642.91845465 6472589.34071788)",155300,Botany East,0.78144969,0.78144969,1771226.0542,5910920.12485,-36.93221968,174.92259922,2681642.91845465,6472589.34071788
"POINT (2680874.4648846 6471900.2100757)",155400,Botany South,0.74938028,0.74938028,1770458.9812,5910229.4704,-36.9385812,174.91414624,2680874.4648846,6471900.2100757
"POINT (2676769.57659604 6466128.09722665)",155500,Manukau Central,11.40067045,11.40067045,1766365.53415,5904449.36385,-36.99138991,174.86947528,2676769.57659604,6466128.09722665
"POINT (2677176.64616134 6468229.67763127)",155600,Papatoetoe East,1.0684957,1.0684957,1766768.4772,5906551.68975,-36.97237736,174.87353637,2677176.64616134,6468229.67763127
"POINT (2677442.14137035 6468672.70066449)",155700,Otara South,0.80187121,0.80187121,1767033.09575,5906995.2244,-36.96833434,174.87640961,2677442.14137035,6468672.70066449
"POINT (2677991.47993987 6468901.3497973)",155800,Ferguson,0.98687785,0.98687785,1767581.9735,5907224.9509,-36.966167,174.88252157,2677991.47993987,6468901.3497973
"POINT (2674757.06046493 6466386.08268028)",155900,Papatoetoe South West,0.8285968,0.8285968,1764352.56705,5904703.4033,-36.98945511,174.84681066,2674757.06046493,6466386.08268028
"POINT (2679244.50914392 6469599.79779938)",156000,Botany Junction,2.48251702,2.48251702,1768833.6058,5907925.8588,-36.95962843,174.89641804,2679244.50914392,6469599.79779938
"POINT (2680684.69529678 6471098.53267092)",156100,Dannemora North,0.54899463,0.54899463,1770270.8053,5909427.42545,-36.94584124,174.91221484,2680684.69529678,6471098.53267092
"POINT (2676606.16812656 6467674.30158075)",156200,Papatoetoe South,0.79596426,0.79596426,1766199.10235,5905995.20695,-36.97749183,174.86726543,2676606.16812656,6467674.30158075
"POINT (2681608.0546709 6471528.15015821)",156300,East Tamaki Heights,1.23138113,1.23138113,1771193.3008,5909858.87425,-36.9417869,174.92247188,2681608.0546709,6471528.15015821
"POINT (2688909.85630255 6476410.24497332)",156400,Te Puru,7.2901401,7.39063529,1778485.3522,5914755.6483,-36.89631822,175.00316112,2688909.85630255,6476410.24497332
"POINT (2676154.72898066 6467012.17262328)",156500,Puhinui North,0.70328268,0.70328268,1765748.9718,5905332.2107,-36.98354464,174.86235623,2676154.72898066,6467012.17262328
